~VERSION INFORMATION
 VERS.                2.0:   CWLS LOG ASCII STANDARD - VERSION 2.0
 WRAP.                 NO:   ONE LINE PER DEPTH STEP
~WELL INFORMATION
#MNEM.UNIT      DATA TYPE    INFORMATION
#----------   ------------   ------------------------------
 STRT.F           32.0000:   START DEPTH
 STOP.F         1082.0000:   STOP DEPTH
 STEP.F            0.5000:   STEP LENGTH
 NULL.          -999.2500:   NO VALUE
 COMP. FENIX & SCISSON INC:   COMPANY
 WELL. NAVAL PETROLEUM RESERVE 3 SX #55-14:   WELL
 FLD .        TEAPOT DOME:   FIELD
 LOC .      S14 T38N R78W:   LOCATION
 CNTY.            NATRONA:   COUNTY
 STAT.            WYOMING:   STATE
 CTRY. UNITED STATES OF AMERICA:   COUNTRY
 SRVC.            Unknown:   SERVICE COMPANY
 DATE.        22-APR-1978:   LOGDATE
 API .       490251061100:   API NUMBER
~CURVE INFORMATION
#MNEM.UNIT       API CODE    CURVE DESCRIPTION
#----------   ------------   ------------------------------
 DEPT.F                  :   
 SPR .MV     05 010 01 00:   SPONTANEOUS POTENTIAL FROM RES.
 ILD .OHMM   05 120 46 00:   INDUCTION LOG DEEP
 SN  .OHMM   05 040 16 00:   SHORT NORMAL 16"
 GRD .GAPI   45 310 01 00:   GAMMA RAY FROM DENSITY LOG
 CALD.IN     45 280 60 00:   CALIPER
 DPOR.DEC    45 890 12 00:   DENSITY POROSITY SANDSTONE
 RHOB.G/C3   45 350 01 00:   BULK DENSITY
 CORR.G/C3   45 356 01 00:   DENSITY CORRECTION
~PARAMETER INFORMATION
#MNEM.UNIT          VALUE    DESCRIPTION
#----------   ------------   ------------------------------
 PD  .                 GL:   PERMANENT DATUM
 EPD .F              5288:   ELEVATION PERMANENT DATUM
 LMF .                 KB:   LOG MEASURED FROM
 DAPD.F                 4:   FEET ABOVE PERMANENT DATUM
 DMF .                 KB:   DRILLING MEASURED FROM
 EKB .F              5292:   KELLING BUSHING
 EGL .F              5288:   GROUND LEVEL
 DATE.            4-22-78:   RUN DATE
 RUN .                  1:   RUN NUMBER
 DD  .F              1080:   DEPTH DRILLER
 DL  .F              1080:   DEPTH LOGGER
 BLI .F              1074:   BOTTOM LOG INTERVAL
 TLI .F                50:   TOP LOG INTERVAL
 CS  .IN            8.625:   CASING SIZE
 CBD .F                40:   CASING BOTTOM DRILLER
 CBL .F                40:   CASING BOTTOM LOGGER
 BS  .IN            7.875:   BIT SIZE
 BSD .F              1080:   BIT SIZE AT DEPTH
 DFT .                KCL:   DRILLING FLUID TYPE
 DFD .                8.6:   DRILLING FLUID DENSITY
 DFV .                 33:   DRILLING FLUID VISCOSITY
 DFPH.               10.2:   DRILLING FLUID PH
 DFL .                8.6:   DRILLING FLUID LOSS
 MSS .            MUD PIT:   MUD SAMPLE SOURCE
 RMS .OHMM            .42:   RESISTIVITY MUD SAMPLE
 MST .F                60:   MUD SAMPLE TEMPERATURE
 RMF .OHMM            .38:   RESISTIVITY MUD FILTRATE SAMPLE
 MFST.F                62:   MUD FILTRATE SAMPLE TEMPERATURE
 RMC .OHMM             .7:   RESISTIVITY MUD CAKE
 MCST.F                62:   MUD CAKE SAMPLE TEMPERATURE
 MFSS.           MEASURED:   MUD FILTRATE SAMPLE SOURCE
 MCSS.           MEASURED:   MUD CAKE SAMPLE SOURCE
 RMB .OHMM            .34:   RESISTIVITY MUD AT BHT
 BHT .F                74:   BOTTOM HOLE TEMPERATURE
 TCS .HRS               5:   TIME CURCULATED STOPPED
 MRT .F                74:   MAXIMUM RECORDED TEMPERATURE
 LUN .               2958:   LOGGING UNIT NUMBER
 LUL .               CASP:   LOGGING UNIT LOCATION
 ENGI.             MILLER:   RECORDING ENGINEER
 WITN.           MCGINLEY:   WITNESSED BY
 CLNT.            A2DTECH:   CLIENT CODE
 ORIG.        2" 5" PRINT:   ORIGIN OF DATA
 UWI .       490251061100:   UNIQUE WELL ID
 DICO. A2D Technologies, Inc.:   DIGITIZING COMPANY
~OTHER INFORMATION
~A   DEPT      SPR        ILD         SN         GRD      CALD       DPOR       RHOB       CORR   
# ...
 1044.5000   -61.4590     6.4782     7.5964    92.0738     7.8226     0.1024     2.4876     0.0008
 1045.0000   -61.4385     6.4574     7.5950    91.3819     7.8198     0.1060     2.4878     0.0045
 1045.5000   -61.4180     6.4348     7.5981    89.9634     7.8169     0.1135     2.4961     0.0081
 1046.0000   -61.3975     6.2422     7.3537    88.8566     7.8151     0.1208     2.4917     0.0107
 1046.5000   -61.3771     6.0366     7.2417    89.2082     7.8380     0.1157     2.4793     0.0089
 1047.0000   -61.3566     5.8379     7.2075    89.4309     7.8617     0.1081     2.4717     0.0073
 1047.5000   -61.3361     5.6457     7.0917    89.3635     7.8864     0.1037     2.4773     0.0057
 1048.0000   -61.3157     5.5599     6.8914    88.5763     7.8812     0.0972     2.4960     0.0054
 1048.5000   -61.2952     5.6649     6.6945    84.0530     7.8670     0.0899     2.5143     0.0066
 1049.0000   -61.2747     5.7411     6.5044    80.2519     7.8533     0.0932     2.5253     0.0078
 1049.5000   -61.2542     5.8142     6.4348    80.1351     7.8525     0.0947     2.5224     0.0091
 1050.0000   -61.2337     5.8309     6.4348    87.5631     7.8552     0.0841     2.5159     0.0103
 1050.5000   -61.2133     5.8681     6.5546    88.6777     7.9020     0.0752     2.5163     0.0115
 1051.0000   -61.1926     6.0652     6.9893    91.1549     7.8994     0.0781     2.5304     0.0128
 1051.5000   -61.1727     6.4385     7.4890    91.3483     7.8842     0.0825     2.5445     0.0140
 1052.0000   -61.1503     6.8349     8.0204    86.7283     7.8688     0.0865     2.5492     0.0143
 1052.5000   -61.2575     7.1873     8.2555    83.8571     7.8533     0.0897     2.5254     0.0123
 1053.0000   -61.3451     7.2274     8.3748    85.9245     7.8414     0.0916     2.5235     0.0104
 1053.5000   -61.3453     7.2694     8.6552    89.5046     7.8294     0.0933     2.5211     0.0084
 1054.0000   -61.3455     7.3127     8.8064    90.7360     7.8167     0.0951     2.5164     0.0064
 1054.5000   -61.3454     7.3448     8.8132    87.9893     7.8294     0.0978     2.5140     0.0056
 1055.0000   -61.3454     7.3741     8.8200    87.2364     7.8497     0.1014     2.5133     0.0050
 1055.5000   -61.3454     7.3892     8.8268    86.6052     7.8703     0.1045     2.5127     0.0045
 1056.0000   -61.3454     7.3593     8.8336    85.9618     7.8906     0.1003     2.5063     0.0038
 1056.5000   -61.3454     7.3392     8.8405    85.9436     7.8759     0.0919     2.4984     0.0028
 1057.0000   -61.3454     7.3192     8.8473    86.3553     7.8588     0.0895     2.4984     0.0017
 1057.5000   -61.3454     7.2993     8.8541    86.8038     7.8418     0.0887     2.4994     0.0008
 1058.0000   -61.3454     7.2793     8.8609    86.9165     7.8368     0.0900     2.5157     0.0034
 1058.5000   -61.3454     7.2595     8.8678    86.7313     7.8460     0.0932     2.5193     0.0120
 1059.0000   -61.3454     7.2397     8.8746    85.1096     7.8502     0.0950     2.5189     0.0109
 1059.5000   -61.3454     7.2200     8.8815    81.0418     7.8361     0.0958     2.5185     0.0100
 1060.0000   -61.3454     7.2003     8.8851    80.2956     7.8228     0.0966     2.5155     0.0092
 1060.5000   -61.3454     7.1806     8.8646    83.9871     7.8259     0.0990     2.5105     0.0049
 1061.0000   -61.3454     7.1610     8.8478    84.9626     7.8562     0.1041     2.5006    -0.0004
 1061.5000   -61.3453     7.1415     8.8306    85.2784     7.8861     0.1092     2.4908     0.0000
 1062.0000   -61.3452     7.1217     8.8139    85.8853     7.9103     0.1095     2.4817     0.0011
 1062.5000   -61.3457     6.9894     8.7618    86.1669     7.9003     0.1059     2.4853     0.0022
 1063.0000   -61.3780     6.8638     8.5631    86.7695     7.8910     0.1026     2.4913     0.0033
 1063.5000   -61.4732     6.6164     8.3689    88.7695     7.8816     0.1030     2.4967     0.0045
 1064.0000   -61.5674     6.3885     8.1791    89.7643     7.8727     0.1140     2.4863     0.0041
 1064.5000   -61.6618     6.1638     7.9936    89.9318     7.8766     0.1450     2.4741     0.0027
 1065.0000   -61.7562     5.9179     7.7220    88.6343     7.8811     0.1603     2.4537     0.0012
 1065.5000   -61.8516     5.6193     7.3226    87.6646     7.8856     0.1763     2.4237    -0.0003
 1066.0000   -61.9429     5.3358     6.7900    87.8717     7.8902     0.1994     2.3893    -0.0017
 1066.5000   -61.8676     4.9580     6.2773    89.3231     7.8767     0.2234     2.3551    -0.0020
 1067.0000   -61.7825     4.5930     5.8692    90.7112     7.8531     0.2458     2.3201    -0.0020
 1067.5000   -61.6982     4.2497     5.4836    89.8365     7.8285     0.2598     2.2861    -0.0019
 1068.0000   -61.6140     3.6482     5.1227    89.5233     7.7708     0.2503     2.2518     0.0013
 1068.5000   -61.5301     3.1227     4.9071    89.3851     7.6538     0.2380     2.2195     0.0097
 1069.0000   -61.4474     2.6731     4.0451    83.8496     7.5722     0.1865     2.2216     0.0152
 1069.5000   -61.3769     2.3978     3.3844    82.4716     7.5772     0.1358     2.3026     0.0201
 1070.0000   -60.7425     2.1619     2.8561    82.4362     7.6023     0.1213     2.3881     0.0249
 1070.5000   -59.8241  -999.2500     2.3733    82.8296     7.6138     0.1077     2.4419     0.0155
 1071.0000   -58.6202  -999.2500     2.2703    83.1972     7.6258     0.0969     2.5013     0.0019
 1071.5000   -58.2136  -999.2500     2.3678    82.1048     7.6382     0.0902     2.5205     0.0013
 1072.0000   -57.4930  -999.2500     2.4500    80.4479     7.6335     0.0869     2.5354     0.0033
 1072.5000   -56.3261  -999.2500  -999.2500    79.4867     7.6251     0.0894     2.5308     0.0102
 1073.0000  -999.2500  -999.2500  -999.2500    83.1487     7.6165     0.0907     2.5264     0.0108
 1073.5000  -999.2500  -999.2500  -999.2500    85.0119     7.6080     0.0872     2.5257     0.0114
 1074.0000  -999.2500  -999.2500  -999.2500    86.1249     7.6024     0.0809     2.5261     0.0120
 1074.5000  -999.2500  -999.2500  -999.2500    87.2395     7.6073     0.0800     2.5303     0.0126
 1075.0000  -999.2500  -999.2500  -999.2500  -999.2500     7.6119     0.0900     2.5342     0.0133
 1075.5000  -999.2500  -999.2500  -999.2500  -999.2500     7.6168     0.0957     2.5251     0.0137
 1076.0000  -999.2500  -999.2500  -999.2500  -999.2500     7.6189     0.0992     2.5082     0.0078
 1076.5000  -999.2500  -999.2500  -999.2500  -999.2500     7.5898     0.1015     2.5010     0.0014
 1077.0000  -999.2500  -999.2500  -999.2500  -999.2500     7.6176     0.1036     2.4979     0.0003
 1077.5000  -999.2500  -999.2500  -999.2500  -999.2500     7.6441     0.1047     2.4955     0.0008
 1078.0000  -999.2500  -999.2500  -999.2500  -999.2500     7.6398     0.1006     2.4959     0.0004
 1078.5000  -999.2500  -999.2500  -999.2500  -999.2500     7.6005     0.0909     2.4963    -0.0006
 1079.0000  -999.2500  -999.2500  -999.2500  -999.2500     7.6150     0.0847     2.4988     0.0014
 1079.5000  -999.2500  -999.2500  -999.2500  -999.2500     7.6296     0.0852     2.5087     0.0056
 1080.0000  -999.2500  -999.2500  -999.2500  -999.2500     7.6443     0.0923     2.5240     0.0070
 1080.5000  -999.2500  -999.2500  -999.2500  -999.2500     7.6590     0.0931     2.5285     0.0051
 1081.0000  -999.2500  -999.2500  -999.2500  -999.2500     7.6597     0.0939     2.5200     0.0031
 1081.5000  -999.2500  -999.2500  -999.2500  -999.2500     7.6596     0.0943     2.5038     0.0011
 1082.0000  -999.2500  -999.2500  -999.2500  -999.2500     7.6596     0.0947     2.5005    -0.0009
