~VERSION INFORMATION
 VERS.                2.0:   CWLS LOG ASCII STANDARD - VERSION 2.0
 WRAP.                 NO:   ONE LINE PER DEPTH STEP
~WELL INFORMATION
#MNEM.UNIT      DATA TYPE    INFORMATION
#----------   ------------   ------------------------------
 STRT.F           32.0000:   START DEPTH
 STOP.F         1082.0000:   STOP DEPTH
 STEP.F            0.5000:   STEP LENGTH
 NULL.          -999.2500:   NO VALUE
 COMP. FENIX & SCISSON INC:   COMPANY
 WELL. NAVAL PETROLEUM RESERVE 3 SX #55-14:   WELL
 FLD .        TEAPOT DOME:   FIELD
 LOC .      S14 T38N R78W:   LOCATION
 CNTY.            NATRONA:   COUNTY
 STAT.            WYOMING:   STATE
 CTRY. UNITED STATES OF AMERICA:   COUNTRY
 SRVC.            Unknown:   SERVICE COMPANY
 DATE.        22-APR-1978:   LOGDATE
 API .       490251061100:   API NUMBER
~CURVE INFORMATION
#MNEM.UNIT       API CODE    CURVE DESCRIPTION
#----------   ------------   ------------------------------
 DEPT.F                  :   
 SPR .MV     05 010 01 00:   SPONTANEOUS POTENTIAL FROM RES.
 ILD .OHMM   05 120 46 00:   INDUCTION LOG DEEP
 SN  .OHMM   05 040 16 00:   SHORT NORMAL 16"
 GRD .GAPI   45 310 01 00:   GAMMA RAY FROM DENSITY LOG
 CALD.IN     45 280 60 00:   CALIPER
 DPOR.DEC    45 890 12 00:   DENSITY POROSITY SANDSTONE
 RHOB.G/C3   45 350 01 00:   BULK DENSITY
 CORR.G/C3   45 356 01 00:   DENSITY CORRECTION
~PARAMETER INFORMATION
#MNEM.UNIT          VALUE    DESCRIPTION
#----------   ------------   ------------------------------
 PD  .                 GL:   PERMANENT DATUM
 EPD .F              5288:   ELEVATION PERMANENT DATUM
 LMF .                 KB:   LOG MEASURED FROM
 DAPD.F                 4:   FEET ABOVE PERMANENT DATUM
 DMF .                 KB:   DRILLING MEASURED FROM
 EKB .F              5292:   KELLING BUSHING
 EGL .F              5288:   GROUND LEVEL
 DATE.            4-22-78:   RUN DATE
 RUN .                  1:   RUN NUMBER
 DD  .F              1080:   DEPTH DRILLER
 DL  .F              1080:   DEPTH LOGGER
 BLI .F              1074:   BOTTOM LOG INTERVAL
 TLI .F                50:   TOP LOG INTERVAL
 CS  .IN            8.625:   CASING SIZE
 CBD .F                40:   CASING BOTTOM DRILLER
 CBL .F                40:   CASING BOTTOM LOGGER
 BS  .IN            7.875:   BIT SIZE
 BSD .F              1080:   BIT SIZE AT DEPTH
 DFT .                KCL:   DRILLING FLUID TYPE
 DFD .                8.6:   DRILLING FLUID DENSITY
 DFV .                 33:   DRILLING FLUID VISCOSITY
 DFPH.               10.2:   DRILLING FLUID PH
 DFL .                8.6:   DRILLING FLUID LOSS
 MSS .            MUD PIT:   MUD SAMPLE SOURCE
 RMS .OHMM            .42:   RESISTIVITY MUD SAMPLE
 MST .F                60:   MUD SAMPLE TEMPERATURE
 RMF .OHMM            .38:   RESISTIVITY MUD FILTRATE SAMPLE
 MFST.F                62:   MUD FILTRATE SAMPLE TEMPERATURE
 RMC .OHMM             .7:   RESISTIVITY MUD CAKE
 MCST.F                62:   MUD CAKE SAMPLE TEMPERATURE
 MFSS.           MEASURED:   MUD FILTRATE SAMPLE SOURCE
 MCSS.           MEASURED:   MUD CAKE SAMPLE SOURCE
 RMB .OHMM            .34:   RESISTIVITY MUD AT BHT
 BHT .F                74:   BOTTOM HOLE TEMPERATURE
 TCS .HRS               5:   TIME CURCULATED STOPPED
 MRT .F                74:   MAXIMUM RECORDED TEMPERATURE
 LUN .               2958:   LOGGING UNIT NUMBER
 LUL .               CASP:   LOGGING UNIT LOCATION
 ENGI.             MILLER:   RECORDING ENGINEER
 WITN.           MCGINLEY:   WITNESSED BY
 CLNT.            A2DTECH:   CLIENT CODE
 ORIG.        2" 5" PRINT:   ORIGIN OF DATA
 UWI .       490251061100:   UNIQUE WELL ID
 DICO. A2D Technologies, Inc.:   DIGITIZING COMPANY
~OTHER INFORMATION
~A   DEPT      SPR        ILD         SN         GRD      CALD       DPOR       RHOB       CORR   
# ...
  315.5000   -65.0984     5.7609     6.4867    84.7128     7.6541     0.1393     2.4430     0.0101
  316.0000   -65.1332     5.7416     6.5603    85.6879     7.7152     0.1426     2.4474     0.0103
  316.5000   -65.1680     5.7272     6.6347    86.7094     7.7949     0.1471     2.4425     0.0105
  317.0000   -65.2028     5.7127     6.6766    85.8016     7.8622     0.1492     2.4330     0.0107
  317.5000   -65.2376     5.6797     6.6225    85.7473     7.9204     0.1503     2.4233     0.0108
  318.0000   -65.2725     5.6380     6.5852    84.5438     7.9776     0.1566     2.4165     0.0124
  318.5000   -65.3074     5.5966     6.5365    82.5357     8.0130     0.1645     2.4149     0.0142
  319.0000   -65.3413     5.5555     6.4329    82.2585     8.0271     0.1675     2.4091     0.0142
  319.5000   -65.3249     5.5146     6.3309    82.2644     8.0407     0.1699     2.3979     0.0128
  320.0000   -65.2409     5.4133     6.1747    82.2410     8.0303     0.1788     2.3900     0.0111
  320.5000   -65.1574     5.2851     6.0141    81.3614     7.9963     0.1883     2.3861     0.0100
  321.0000   -65.0740     5.1245     5.8576    80.4460     7.9379     0.1968     2.3745     0.0091
  321.5000   -64.9890     4.9098     5.7080    80.7426     7.8801     0.1850     2.3586     0.0081
  322.0000   -65.0099     4.7041     5.5635    82.4656     7.8226     0.1714     2.3413     0.0072
  322.5000   -65.0859     4.5068     5.3935    83.8467     7.7744     0.1623     2.3510     0.0115
  323.0000   -65.1637     4.3167     5.2288    83.8137     7.7762     0.1565     2.3753     0.0175
  323.5000   -65.2413     4.0958     5.0215    83.8284     7.7516     0.1508     2.4032     0.0207
  324.0000   -65.3172     4.1048     4.7864    83.9799     7.7372     0.1492     2.4183     0.0145
  324.5000   -65.3107     4.1200     4.5623    82.3265     7.7362     0.1485     2.4292     0.0035
  325.0000   -65.1939     4.1338     4.3488    80.4623     7.6969     0.1481     2.4274     0.0026
  325.5000   -65.0774     4.1028     4.1306    79.8602     7.6542     0.1476     2.4253     0.0013
  326.0000   -64.9632     4.0748     4.1304    79.5212     7.6504     0.1472     2.4264     0.0000
  326.5000   -64.9698     4.0582     4.5570    79.4350     7.6652     0.1478     2.4281     0.0063
  327.0000   -64.9843     4.3603     4.8523    80.0824     7.6804     0.1504     2.4293     0.0079
  327.5000   -64.9982     4.5891     5.0233    81.1671     7.6957     0.1593     2.4287     0.0065
  328.0000   -65.0119     4.7033     5.2002    83.1652     7.6987     0.1683     2.4187     0.0029
  328.5000   -65.0256     4.7033     5.3661    83.4318     7.6711     0.1740     2.4067    -0.0007
  329.0000   -65.0394     4.7033     5.4509    87.4651     7.6312     0.1759     2.3860    -0.0043
  329.5000   -65.0531     4.7033     5.4127    91.4228     7.5907     0.1786     2.3773    -0.0061
  330.0000   -65.0668     4.7033     5.3533    95.4045     7.5498     0.1932     2.3706    -0.0065
  330.5000   -65.0806     4.7034     5.2943    95.6929     7.5464     0.2096     2.3540    -0.0069
  331.0000   -65.0943     4.6822     5.2362    91.6539     7.5500     0.2288     2.3369    -0.0076
  331.5000   -65.1081     4.6542     5.1780    87.6530     7.5537     0.2496     2.3167    -0.0087
  332.0000   -65.1218     4.6264     5.0869    85.5000     7.5573     0.2725     2.2870    -0.0089
  332.5000   -65.1356     4.6174     4.9795    85.1372     7.5610     0.2946     2.2430    -0.0089
  333.0000   -65.1495     4.3388     4.8545    85.9979     7.5698     0.2950     2.2053    -0.0090
  333.5000   -65.1604     3.8487     4.6854    87.0105     7.5850     0.2788     2.1845    -0.0080
  334.0000   -65.1364     3.3716     4.4300    89.5412     7.6028     0.2459     2.1698     0.0099
  334.5000   -65.1114     2.9287     4.1351    93.0620     7.6998     0.2004     2.2043     0.0330
  335.0000   -65.0865     2.5440     3.7405    92.3433     7.6866     0.1920     2.2620     0.0459
  335.5000   -65.0617     2.3556     3.2806    88.9932     7.6595     0.1836     2.3202     0.0342
  336.0000   -65.0368     2.4082     2.8772    85.2688     7.6800     0.1766     2.3620     0.0196
  336.5000   -65.0120     2.5055     2.5234    81.4585     7.7084     0.1729     2.3723     0.0050
  337.0000   -64.9875     2.6067     2.4667    81.0986     7.7362     0.1693     2.3735    -0.0041
  337.5000   -64.9605     2.7120     2.8131    81.8829     7.7371     0.1659     2.3811    -0.0039
  338.0000   -64.8341     2.9024     3.3729    81.8749     7.7369     0.1626     2.3861    -0.0027
  338.5000   -64.6933     3.7241     4.0582    81.8267     7.7543     0.1593     2.3909     0.0030
  339.0000   -64.5653     4.5330     4.4285    84.0146     7.7878     0.1586     2.3981     0.0085
  339.5000   -64.6817     4.5750     4.5750    85.1972     7.8138     0.1595     2.4022     0.0140
  340.0000   -64.8061     4.4728     4.5811    85.4856     7.8070     0.1606     2.4007     0.0106
  340.5000   -64.9332     4.3252     4.5903    88.1175     7.8008     0.1619     2.4011     0.0037
  341.0000   -64.9600     4.1824     4.5995    88.2307     7.7947     0.1670     2.4018     0.0001
  341.5000   -64.9602     3.9475     4.6087    88.1525     7.7886     0.1710     2.4027    -0.0025
  342.0000   -64.9599     3.9527     4.6174    88.0199     7.7825     0.1720     2.3918    -0.0049
  342.5000   -64.9598     3.9610     4.7188    86.0639     7.7765     0.1740     2.3784    -0.0049
  343.0000   -64.9524     3.9693     4.7469    84.1071     7.7719     0.1743     2.3769    -0.0043
  343.5000   -64.9284     3.9776     4.7469    82.3976     7.7677     0.1739     2.3777    -0.0027
  344.0000   -64.9047     3.9837     4.7469    83.7696     7.7635     0.1780     2.3784    -0.0003
  344.5000   -64.8810     3.9704     4.6632    86.1973     7.7593     0.1888     2.3739     0.0019
  345.0000   -64.8573     3.9592     4.5750    88.5491     7.7566     0.2091     2.3627     0.0013
  345.5000   -64.8336     3.9484     4.4825    90.6635     7.7652     0.2142     2.3456     0.0005
  346.0000   -64.8099     3.8359     4.3316    90.0268     7.7736     0.2190     2.3282     0.0000
  346.5000   -64.7862     3.6518     4.1858    85.0463     7.7930     0.2190     2.3122     0.0009
  347.0000   -64.7625     3.4649     4.0449    81.0437     7.8142     0.2186     2.3038     0.0019
  347.5000   -64.7388     3.2251     3.8884    79.9846     7.8212     0.1906     2.2995     0.0027
  348.0000   -64.7151     2.9738     3.6814    80.9339     7.8279     0.1606     2.3149     0.0122
  348.5000   -64.6914     2.7655     3.4882    81.8256     7.8455     0.1410     2.3617     0.0240
  349.0000   -64.6677     2.6801     3.3046    80.6025     7.9220     0.1398     2.4021     0.0267
  349.5000   -64.6440     2.6512     3.1307    77.2889     7.9814     0.1414     2.4163     0.0163
  350.0000   -64.6203     2.6312     2.9660    73.9151     8.0025     0.1433     2.4307     0.0114
  350.5000   -64.5965     2.7446     2.8588    73.7670     7.9913     0.1462     2.4323     0.0137
  351.0000   -64.5733     2.8524     2.8908    75.4461     7.9804     0.1513     2.4313     0.0157
  351.5000   -64.5720     2.9662     3.1104    77.6802     7.9683     0.1564     2.4247     0.0144
  352.0000   -64.6101     3.0838     3.3439    78.2981     7.9308     0.1597     2.4185     0.0129
  352.5000   -64.6476     3.2919     3.8611    80.6258     7.8752     0.1564     2.4177     0.0130
  353.0000   -64.6853     3.5344     4.4093    82.5183     7.7976     0.1611     2.4159     0.0132
  353.5000   -64.7229     4.0747     4.6922    81.4849     7.7201     0.1656     2.4054     0.0135
  354.0000   -64.7605     4.6671     4.9740    81.1067     7.6428     0.1708     2.3951     0.0137
  354.5000   -64.7981     4.6662     5.1603    82.1167     7.5816     0.1798     2.3860     0.0138
  355.0000   -64.8357     4.5084     5.1792    82.7002     7.5882     0.1890     2.3837     0.0132
  355.5000   -64.8733     4.4502     5.1981    79.1340     7.5932     0.1981     2.3711     0.0108
