~VERSION INFORMATION
 VERS.                2.0:   CWLS LOG ASCII STANDARD - VERSION 2.0
 WRAP.                 NO:   ONE LINE PER DEPTH STEP
~WELL INFORMATION
#MNEM.UNIT      DATA TYPE    INFORMATION
#----------   ------------   ------------------------------
 STRT.F           32.0000:   START DEPTH
 STOP.F         1082.0000:   STOP DEPTH
 STEP.F            0.5000:   STEP LENGTH
 NULL.          -999.2500:   NO VALUE
 COMP. FENIX & SCISSON INC:   COMPANY
 WELL. NAVAL PETROLEUM RESERVE 3 SX #55-14:   WELL
 FLD .        TEAPOT DOME:   FIELD
 LOC .      S14 T38N R78W:   LOCATION
 CNTY.            NATRONA:   COUNTY
 STAT.            WYOMING:   STATE
 CTRY. UNITED STATES OF AMERICA:   COUNTRY
 SRVC.            Unknown:   SERVICE COMPANY
 DATE.        22-APR-1978:   LOGDATE
 API .       490251061100:   API NUMBER
~CURVE INFORMATION
#MNEM.UNIT       API CODE    CURVE DESCRIPTION
#----------   ------------   ------------------------------
 DEPT.F                  :   
 SPR .MV     05 010 01 00:   SPONTANEOUS POTENTIAL FROM RES.
 ILD .OHMM   05 120 46 00:   INDUCTION LOG DEEP
 SN  .OHMM   05 040 16 00:   SHORT NORMAL 16"
 GRD .GAPI   45 310 01 00:   GAMMA RAY FROM DENSITY LOG
 CALD.IN     45 280 60 00:   CALIPER
 DPOR.DEC    45 890 12 00:   DENSITY POROSITY SANDSTONE
 RHOB.G/C3   45 350 01 00:   BULK DENSITY
 CORR.G/C3   45 356 01 00:   DENSITY CORRECTION
~PARAMETER INFORMATION
#MNEM.UNIT          VALUE    DESCRIPTION
#----------   ------------   ------------------------------
 PD  .                 GL:   PERMANENT DATUM
 EPD .F              5288:   ELEVATION PERMANENT DATUM
 LMF .                 KB:   LOG MEASURED FROM
 DAPD.F                 4:   FEET ABOVE PERMANENT DATUM
 DMF .                 KB:   DRILLING MEASURED FROM
 EKB .F              5292:   KELLING BUSHING
 EGL .F              5288:   GROUND LEVEL
 DATE.            4-22-78:   RUN DATE
 RUN .                  1:   RUN NUMBER
 DD  .F              1080:   DEPTH DRILLER
 DL  .F              1080:   DEPTH LOGGER
 BLI .F              1074:   BOTTOM LOG INTERVAL
 TLI .F                50:   TOP LOG INTERVAL
 CS  .IN            8.625:   CASING SIZE
 CBD .F                40:   CASING BOTTOM DRILLER
 CBL .F                40:   CASING BOTTOM LOGGER
 BS  .IN            7.875:   BIT SIZE
 BSD .F              1080:   BIT SIZE AT DEPTH
 DFT .                KCL:   DRILLING FLUID TYPE
 DFD .                8.6:   DRILLING FLUID DENSITY
 DFV .                 33:   DRILLING FLUID VISCOSITY
 DFPH.               10.2:   DRILLING FLUID PH
 DFL .                8.6:   DRILLING FLUID LOSS
 MSS .            MUD PIT:   MUD SAMPLE SOURCE
 RMS .OHMM            .42:   RESISTIVITY MUD SAMPLE
 MST .F                60:   MUD SAMPLE TEMPERATURE
 RMF .OHMM            .38:   RESISTIVITY MUD FILTRATE SAMPLE
 MFST.F                62:   MUD FILTRATE SAMPLE TEMPERATURE
 RMC .OHMM             .7:   RESISTIVITY MUD CAKE
 MCST.F                62:   MUD CAKE SAMPLE TEMPERATURE
 MFSS.           MEASURED:   MUD FILTRATE SAMPLE SOURCE
 MCSS.           MEASURED:   MUD CAKE SAMPLE SOURCE
 RMB .OHMM            .34:   RESISTIVITY MUD AT BHT
 BHT .F                74:   BOTTOM HOLE TEMPERATURE
 TCS .HRS               5:   TIME CURCULATED STOPPED
 MRT .F                74:   MAXIMUM RECORDED TEMPERATURE
 LUN .               2958:   LOGGING UNIT NUMBER
 LUL .               CASP:   LOGGING UNIT LOCATION
 ENGI.             MILLER:   RECORDING ENGINEER
 WITN.           MCGINLEY:   WITNESSED BY
 CLNT.            A2DTECH:   CLIENT CODE
 ORIG.        2" 5" PRINT:   ORIGIN OF DATA
 UWI .       490251061100:   UNIQUE WELL ID
 DICO. A2D Technologies, Inc.:   DIGITIZING COMPANY
~OTHER INFORMATION
~A   DEPT      SPR        ILD         SN         GRD      CALD       DPOR       RHOB       CORR   
# ...
  234.5000   -64.8237     5.3513     6.3170    77.3269     7.9576     0.1612     2.3974     0.0022
  235.0000   -64.8148     5.3513     6.2797    77.3285     7.9560     0.1637     2.3957     0.0035
  235.5000   -64.8060     5.3515     6.2229    76.5674     7.9543     0.1663     2.3932     0.0047
  236.0000   -64.7971     5.3377     6.1674    75.8779     7.9527     0.1598     2.3932     0.0042
  236.5000   -64.7883     5.3014     6.1384    76.2988     7.9511     0.1541     2.3974     0.0031
  237.0000   -64.7794     5.2653     6.1282    77.4726     7.9505     0.1590     2.4036     0.0020
  237.5000   -64.7705     5.2294     6.1177    80.3672     7.9563     0.1584     2.4120     0.0032
  238.0000   -64.7613     5.2033     6.1072    83.2626     7.9621     0.1554     2.4103     0.0056
  238.5000   -64.7590     5.1973     6.0968    85.4138     7.9679     0.1547     2.4084     0.0079
  239.0000   -64.7590     5.1912     6.0721    84.8614     7.9737     0.1560     2.4084     0.0079
  239.5000   -64.7590     5.1851     5.9950    83.8224     7.9795     0.1564     2.4084     0.0077
  240.0000   -64.7590     5.1790     5.9188    83.4121     7.9851     0.1600     2.4072     0.0063
  240.5000   -64.7590     5.1730     5.8681    83.5169     7.9814     0.1628     2.4056     0.0048
  241.0000   -64.7590     5.1672     5.9364    83.7363     7.9654     0.1625     2.4037     0.0036
  241.5000   -64.7590     5.1610     5.9773    83.9480     7.9495     0.1627     2.4003     0.0027
  242.0000   -64.7590     5.1575     6.0341    80.0104     7.9335     0.1654     2.3969     0.0018
  242.5000   -64.7590     5.3083     6.2038    78.3790     7.9160     0.1681     2.3944     0.0010
  243.0000   -64.7590     5.4008     6.2006    80.5861     7.8982     0.1673     2.3928     0.0001
  243.5000   -64.7590     5.4060     6.2018    83.6119     7.8802     0.1669     2.3910    -0.0007
  244.0000   -64.7590     5.4153     6.2018    86.6071     7.8941     0.1674     2.3909    -0.0016
  244.5000   -64.7590     5.4246     6.2018    86.7423     7.9331     0.1670     2.3914    -0.0015
  245.0000   -64.7590     5.4338     6.2466    86.9661     7.9725     0.1655     2.3916    -0.0006
  245.5000   -64.7590     5.4430     6.3389    86.9374     8.0087     0.1634     2.3915     0.0002
  246.0000   -64.7590     5.4520     6.4354    86.5984     8.0190     0.1558     2.3952     0.0011
  246.5000   -64.7590     5.5954     6.4348    86.3176     8.0274     0.1530     2.4029     0.0020
  247.0000   -64.7590     5.7842     6.4348    86.3037     8.0221     0.1524     2.4129     0.0054
  247.5000   -64.7590     5.9361     6.5282    87.1815     8.0158     0.1483     2.4157     0.0090
  248.0000   -64.7590     5.9837     6.7386    87.0271     8.0100     0.1396     2.4148     0.0125
  248.5000   -64.7590     6.0317     6.9652    85.4629     7.9706     0.1476     2.4327     0.0163
  249.0000   -64.7591     6.0801     7.1932    85.2154     7.9177     0.1477     2.4378     0.0204
  249.5000   -64.7591     6.1288     7.3214    85.4344     7.8528     0.1498     2.4303     0.0245
  250.0000   -64.7606     6.2018     7.2952    89.2655     7.7952     0.1519     2.4228     0.0239
  250.5000   -64.6761     6.1771     7.2542    93.5405     7.7947     0.1524     2.4159     0.0180
  251.0000   -64.5627     6.1294     7.1687    96.3597     7.7949     0.1518     2.4141     0.0121
  251.5000   -64.5675     6.0821     7.0554    96.1387     7.7950     0.1513     2.4145     0.0109
  252.0000   -64.5788     6.0352     6.9440    95.9687     7.7939     0.1507     2.4176     0.0099
  252.5000   -64.5894     5.9886     6.8344    95.8193     7.7882     0.1565     2.4182     0.0090
  253.0000   -64.5999     5.9424     6.8008    96.1531     7.7827     0.1616     2.4140     0.0075
  253.5000   -64.6103     5.8966     6.8008    96.4963     7.7770     0.1577     2.4098     0.0058
  254.0000   -64.6208     5.8681     6.8008    96.2655     7.7729     0.1563     2.4056     0.0048
  254.5000   -64.6313     5.9197     6.8008    95.3259     7.7692     0.1584     2.4054     0.0044
  255.0000   -64.6418     5.9575     6.8008    94.3832     7.7655     0.1584     2.4060     0.0039
  255.5000   -64.6523     6.0309     6.8007    94.1066     7.7618     0.1566     2.4063     0.0026
  256.0000   -64.6628     6.1421     6.8426    97.2790     7.7581     0.1556     2.4058     0.0012
  256.5000   -64.6733     6.2600     6.9274   104.1357     7.7544     0.1620     2.4048    -0.0003
  257.0000   -64.6837     6.2587     7.0662   103.1431     7.7507     0.1608     2.4018    -0.0017
  257.5000   -64.6942     6.2593     7.2123   100.4675     7.7470     0.1594     2.3989    -0.0031
  258.0000   -64.7047     6.3982     7.3400    97.1362     7.7434     0.1611     2.3966    -0.0039
  258.5000   -64.7152     6.7384     7.4105    95.5028     7.7397     0.1648     2.3971    -0.0032
  259.0000   -64.7257     6.6787     7.5244    95.3142     7.7305     0.1648     2.3969    -0.0024
  259.5000   -64.7362     6.7909     7.7267    93.4953     7.7024     0.1632     2.3935    -0.0016
  260.0000   -64.7466     6.9138     7.8318    91.6833     7.6782     0.1599     2.3929    -0.0008
  260.5000   -64.7560     7.0393     7.8703    90.1304     7.7063     0.1566     2.3958     0.0000
  261.0000   -64.8062     7.0564     7.9822    90.7154     7.7373     0.1541     2.3989     0.0027
  261.5000   -64.8639     7.0565     8.0482    91.0217     7.7182     0.1532     2.4073     0.0055
  262.0000   -64.9217     7.0563     8.0752    91.2263     7.6886     0.1523     2.4155     0.0084
  262.5000   -64.9794     7.0563     8.1028   102.0721     7.6976     0.1495     2.4158     0.0089
  263.0000   -65.0371     7.0563     8.0306   104.2733     7.7359     0.1467     2.4167     0.0089
  263.5000   -65.0949     6.9792     7.9586   102.6049     7.7743     0.1439     2.4235     0.0089
  264.0000   -65.1534     6.8619     7.8810    96.9061     7.8127     0.1405     2.4296     0.0089
  264.5000   -65.1403     6.7466     7.8822    91.2723     7.8510     0.1366     2.4337     0.0099
  265.0000   -65.1160     6.6332     7.8818    90.4586     7.8788     0.1326     2.4382     0.0109
  265.5000   -65.0917     6.5218     7.8818    93.6436     7.8916     0.1281     2.4436     0.0119
  266.0000   -65.0675     6.4122     7.8818    96.3568     7.9130     0.1234     2.4490     0.0130
  266.5000   -65.0434     6.3758     7.8130    97.5824     7.9546     0.1188     2.4558     0.0094
  267.0000   -65.0192     6.4253     7.7334    98.7265     7.9893     0.1141     2.4678     0.0052
  267.5000   -64.9951     6.5242     7.6668    99.8624     7.9832     0.1105     2.4798     0.0011
  268.0000   -64.9709     6.6247     7.6375   100.2420     7.9548     0.1217     2.4901     0.0000
  268.5000   -64.9690     6.7267     7.5951    99.9583     7.9271     0.1366     2.4783     0.0004
  269.0000   -64.9852     6.8303     7.6435    99.3246     7.8984     0.1434     2.4576     0.0008
  269.5000   -65.0016     6.8638     7.7663    98.6929     7.8826     0.1462     2.4369     0.0026
  270.0000   -65.0182     6.7377     8.0640    98.0259     7.8711     0.1495     2.4258     0.0062
  270.5000   -65.0347     6.6251     8.3723    98.8605     7.8658     0.1517     2.4240     0.0050
  271.0000   -65.0511     6.5141     8.5637   100.0463     7.8603     0.1525     2.4212     0.0044
  271.5000   -65.0676     6.4686     8.3428   101.2347     7.8547     0.1533     2.4174     0.0033
  272.0000   -65.0841     6.4423     8.0285   101.8739     7.8492     0.1581     2.4135     0.0022
  272.5000   -65.1006     6.1137     7.4476   101.8318     7.8436     0.1608     2.4111     0.0011
  273.0000   -65.1171     5.7749     6.9274   101.8821     7.8381     0.1604     2.4107     0.0010
  273.5000   -65.1338     5.4509     6.7384   101.1932     7.8352     0.1573     2.4104     0.0010
  274.0000   -65.1494     5.3347     6.5948   100.5014     7.8450     0.1525     2.4103     0.0006
  274.5000   -65.1248     5.2053     6.4532    99.8127     7.8545     0.1477     2.4147     0.0000
