~VERSION INFORMATION
 VERS.                2.0:   CWLS LOG ASCII STANDARD - VERSION 2.0
 WRAP.                 NO:   ONE LINE PER DEPTH STEP
~WELL INFORMATION
#MNEM.UNIT      DATA TYPE    INFORMATION
#----------   ------------   ------------------------------
 STRT.F           32.0000:   START DEPTH
 STOP.F         1082.0000:   STOP DEPTH
 STEP.F            0.5000:   STEP LENGTH
 NULL.          -999.2500:   NO VALUE
 COMP. FENIX & SCISSON INC:   COMPANY
 WELL. NAVAL PETROLEUM RESERVE 3 SX #55-14:   WELL
 FLD .        TEAPOT DOME:   FIELD
 LOC .      S14 T38N R78W:   LOCATION
 CNTY.            NATRONA:   COUNTY
 STAT.            WYOMING:   STATE
 CTRY. UNITED STATES OF AMERICA:   COUNTRY
 SRVC.            Unknown:   SERVICE COMPANY
 DATE.        22-APR-1978:   LOGDATE
 API .       490251061100:   API NUMBER
~CURVE INFORMATION
#MNEM.UNIT       API CODE    CURVE DESCRIPTION
#----------   ------------   ------------------------------
 DEPT.F                  :   
 SPR .MV     05 010 01 00:   SPONTANEOUS POTENTIAL FROM RES.
 ILD .OHMM   05 120 46 00:   INDUCTION LOG DEEP
 SN  .OHMM   05 040 16 00:   SHORT NORMAL 16"
 GRD .GAPI   45 310 01 00:   GAMMA RAY FROM DENSITY LOG
 CALD.IN     45 280 60 00:   CALIPER
 DPOR.DEC    45 890 12 00:   DENSITY POROSITY SANDSTONE
 RHOB.G/C3   45 350 01 00:   BULK DENSITY
 CORR.G/C3   45 356 01 00:   DENSITY CORRECTION
~PARAMETER INFORMATION
#MNEM.UNIT          VALUE    DESCRIPTION
#----------   ------------   ------------------------------
 PD  .                 GL:   PERMANENT DATUM
 EPD .F              5288:   ELEVATION PERMANENT DATUM
 LMF .                 KB:   LOG MEASURED FROM
 DAPD.F                 4:   FEET ABOVE PERMANENT DATUM
 DMF .                 KB:   DRILLING MEASURED FROM
 EKB .F              5292:   KELLING BUSHING
 EGL .F              5288:   GROUND LEVEL
 DATE.            4-22-78:   RUN DATE
 RUN .                  1:   RUN NUMBER
 DD  .F              1080:   DEPTH DRILLER
 DL  .F              1080:   DEPTH LOGGER
 BLI .F              1074:   BOTTOM LOG INTERVAL
 TLI .F                50:   TOP LOG INTERVAL
 CS  .IN            8.625:   CASING SIZE
 CBD .F                40:   CASING BOTTOM DRILLER
 CBL .F                40:   CASING BOTTOM LOGGER
 BS  .IN            7.875:   BIT SIZE
 BSD .F              1080:   BIT SIZE AT DEPTH
 DFT .                KCL:   DRILLING FLUID TYPE
 DFD .                8.6:   DRILLING FLUID DENSITY
 DFV .                 33:   DRILLING FLUID VISCOSITY
 DFPH.               10.2:   DRILLING FLUID PH
 DFL .                8.6:   DRILLING FLUID LOSS
 MSS .            MUD PIT:   MUD SAMPLE SOURCE
 RMS .OHMM            .42:   RESISTIVITY MUD SAMPLE
 MST .F                60:   MUD SAMPLE TEMPERATURE
 RMF .OHMM            .38:   RESISTIVITY MUD FILTRATE SAMPLE
 MFST.F                62:   MUD FILTRATE SAMPLE TEMPERATURE
 RMC .OHMM             .7:   RESISTIVITY MUD CAKE
 MCST.F                62:   MUD CAKE SAMPLE TEMPERATURE
 MFSS.           MEASURED:   MUD FILTRATE SAMPLE SOURCE
 MCSS.           MEASURED:   MUD CAKE SAMPLE SOURCE
 RMB .OHMM            .34:   RESISTIVITY MUD AT BHT
 BHT .F                74:   BOTTOM HOLE TEMPERATURE
 TCS .HRS               5:   TIME CURCULATED STOPPED
 MRT .F                74:   MAXIMUM RECORDED TEMPERATURE
 LUN .               2958:   LOGGING UNIT NUMBER
 LUL .               CASP:   LOGGING UNIT LOCATION
 ENGI.             MILLER:   RECORDING ENGINEER
 WITN.           MCGINLEY:   WITNESSED BY
 CLNT.            A2DTECH:   CLIENT CODE
 ORIG.        2" 5" PRINT:   ORIGIN OF DATA
 UWI .       490251061100:   UNIQUE WELL ID
 DICO. A2D Technologies, Inc.:   DIGITIZING COMPANY
~OTHER INFORMATION
~A   DEPT      SPR        ILD         SN         GRD      CALD       DPOR       RHOB       CORR   
# ...
  720.5000   -62.2870     6.3173     7.5262    83.9160     7.5184     0.1141     2.4540     0.0322
  721.0000   -62.2754     6.3173     7.4633    84.4924     7.5105     0.1097     2.4648     0.0413
  721.5000   -62.2638     6.3175     7.3442    81.4387     7.5024     0.1238     2.4755     0.0409
  722.0000   -62.2522     6.3158     7.2828    78.5674     7.4943     0.1383     2.4865     0.0366
  722.5000   -62.2405     6.1866     7.2176    81.0009     7.4866     0.1485     2.4620     0.0321
  723.0000   -62.2289     6.0319     7.1540    84.8135     7.4496     0.1469     2.4415     0.0194
  723.5000   -62.2173     5.8681     7.1219    85.3958     7.3992     0.1509     2.4255     0.0073
  724.0000   -62.2057     5.7113     6.9791    85.5080     7.3543     0.1489     2.4227     0.0002
  724.5000   -62.1941     5.5443     6.8262    84.1826     7.3626     0.1465     2.4201     0.0015
  725.0000   -62.1824     5.3822     6.6766    83.7496     7.4380     0.1465     2.4220     0.0027
  725.5000   -62.1707     5.3513     6.5028    83.5721     7.5382     0.1475     2.4260     0.0039
  726.0000   -62.1585     5.3513     6.3335    83.3976     7.6370     0.1544     2.4291     0.0033
  726.5000   -62.1526     5.3513     6.1686    84.2741     7.6424     0.1612     2.4207     0.0023
  727.0000   -62.2342     5.3513     6.0703    85.3583     7.6497     0.1616     2.4084     0.0019
  727.5000   -62.3153     5.3513     6.0327    86.3042     7.6576     0.1451     2.3997     0.0023
  728.0000   -62.2931     5.4158     6.0327    85.0418     7.6670     0.1283     2.4228     0.0079
  728.5000   -62.1955     5.5946     6.3429    85.5885     7.6814     0.1141     2.4405     0.0402
  729.0000   -62.0969     5.7794     6.6756    86.4358     7.6958     0.1045     2.4497     0.0446
  729.5000   -61.9995     5.9702     6.8724    87.1535     7.7101     0.1014     2.4960     0.0540
  730.0000   -62.0035     6.0426     6.9051    87.7350     7.7176     0.1111     2.5049     0.0645
  730.5000   -62.1186     6.0631     6.9412    87.8408     7.7175     0.1222     2.5097     0.0689
  731.0000   -62.2332     6.0885     7.0520    87.7416     7.7402     0.1336     2.4685     0.0482
  731.5000   -62.3489     6.0500     7.1645    87.6407     7.7805     0.1358     2.4655     0.0256
  732.0000   -62.4633     5.9834     7.1911    87.5333     7.8021     0.1337     2.4536     0.0136
  732.5000   -62.5301     5.9174     7.2074    86.9686     7.8138     0.1323     2.4451     0.0034
  733.0000   -62.4221     5.8523     7.2237    86.2814     7.8080     0.1323     2.4487     0.0012
  733.5000   -62.3549     5.7878     7.2400    85.9480     7.8007     0.1311     2.4506     0.0016
  734.0000   -62.3799     5.7240     7.2542    85.2033     7.7888     0.1299     2.4494     0.0020
  734.5000   -62.4034     5.6930     7.0374    84.3018     7.7562     0.1301     2.4502     0.0024
  735.0000   -62.4270     5.6661     6.8520    83.7901     7.7242     0.1303     2.4529     0.0029
  735.5000   -62.4505     5.6392     6.6766    83.6274     7.6918     0.1315     2.4530     0.0025
  736.0000   -62.4740     5.6125     6.6766    85.0718     7.6613     0.1357     2.4530     0.0017
  736.5000   -62.4975     5.6038     6.6766    88.7096     7.6895     0.1408     2.4495     0.0010
  737.0000   -62.5210     5.6038     6.5788    92.0022     7.7208     0.1459     2.4442     0.0002
  737.5000   -62.5452     5.6039     6.4944    94.6345     7.7369     0.1518     2.4326    -0.0005
  738.0000   -62.5502     5.4609     6.4944    93.2152     7.7372     0.1586     2.4201    -0.0011
  738.5000   -62.5503     5.2300     6.4381    88.3082     7.7558     0.1655     2.4128    -0.0017
  739.0000   -62.5505     4.9538     6.1688    85.2340     7.7761     0.1724     2.4009    -0.0024
  739.5000   -62.5502     4.6936     5.9225    83.3234     7.7947     0.1731     2.3876    -0.0027
  740.0000   -62.5253     4.4476     5.7768    80.4002     7.7950     0.1595     2.3758     0.0004
  740.5000   -62.4209     4.4514     5.6037    77.6955     7.7980     0.1462     2.3977     0.0106
  741.0000   -62.3209     4.4502     5.2968    79.7567     7.8213     0.1327     2.4286     0.0169
  741.5000   -62.2208     4.4502     4.9862    82.2974     7.8445     0.1220     2.4566     0.0163
  742.0000   -62.1205     4.4806     4.9252    84.8809     7.8312     0.1196     2.4727     0.0132
  742.5000   -62.0207     4.5315     4.9528    89.0296     7.7773     0.1216     2.4777     0.0103
  743.0000   -61.9462     4.5830     5.1385    95.0945     7.5887     0.1240     2.4754     0.0073
  743.5000   -61.9477     4.6351     5.5179    97.8110     7.4965     0.1238     2.4648     0.0043
  744.0000   -61.9477     4.8495     5.9252    98.0897     7.4377     0.1234     2.4632     0.0018
  744.5000   -61.9478     5.2322     6.1987    98.6608     7.3982     0.1232     2.4636     0.0009
  745.0000   -61.9478     5.6185     6.4279   101.7564     7.3550     0.1232     2.4637     0.0000
  745.5000   -61.9478     5.9248     6.6655   105.0471     7.2978     0.1277     2.4623     0.0009
  746.0000   -61.9478     5.9245     6.8460   103.4678     7.1330     0.1339     2.4578     0.0020
  746.5000   -61.9478     5.9226     6.9484   101.5509     6.9580     0.1408     2.4489     0.0030
  747.0000   -61.9478     5.9226     7.0522   100.2759     6.9052     0.1477     2.4385     0.0040
  747.5000   -61.9478     5.9476     7.1660   105.1487     6.9094     0.1509     2.4281     0.0049
  748.0000   -61.9478     5.9950     7.2981   108.1210     7.0462     0.1483     2.4182     0.0057
  748.5000   -61.9478     6.0427     7.4329   104.0741     7.2499     0.1429     2.4216     0.0089
  749.0000   -61.9478     6.0908     7.5157    98.7309     7.4460     0.1326     2.4432     0.0129
  749.5000   -61.9477     6.1393     7.5879    95.2784     7.5618     0.1210     2.4615     0.0169
  750.0000   -61.9469     6.1883     7.6676    92.8630     7.5904     0.1105     2.4786     0.0204
  750.5000   -61.9499     6.2375     7.6663    93.0754     7.5278     0.1094     2.4849     0.0227
  751.0000   -62.1017     6.2872     7.6670    94.5557     7.6282     0.1085     2.4860     0.0279
  751.5000   -62.2672     6.3173     7.6976    96.7488     7.6187     0.1093     2.4866     0.0355
  752.0000   -62.4314     6.2938     7.7506    99.5538     7.5145     0.1101     2.4876     0.0432
  752.5000   -62.5556     6.2771     7.8038    99.8930     7.4050     0.1074     2.4892     0.0552
  753.0000   -62.5660     6.2604     7.8818    94.6264     7.2090     0.1122     2.4908     0.0737
  753.5000   -62.5782     6.2438     7.8725    91.1047     7.0191     0.1217     2.4931     0.0921
  754.0000   -62.5904     6.2273     7.8554    88.2884     6.8903     0.1276     2.4968     0.1033
  754.5000   -62.6027     6.2107     7.8383    85.7089     6.8326     0.1187     2.4752     0.0918
  755.0000   -62.6149     6.1942     7.8213    84.7838     6.9407     0.1152     2.4604     0.0808
  755.5000   -62.6272     6.1778     7.8043    84.1783     7.0624     0.1235     2.5023     0.0774
  756.0000   -62.6395     6.1614     7.7873    84.2014     7.1889     0.1272     2.4757     0.0604
  756.5000   -62.6517     6.1450     7.7704    85.6010     7.2462     0.1283     2.4628     0.0405
  757.0000   -62.6640     6.1287     7.7535    88.9515     7.2872     0.1265     2.4617     0.0216
  757.5000   -62.6762     6.1125     7.7366    90.6524     7.3280     0.1259     2.4586     0.0114
  758.0000   -62.6885     6.0962     7.6592    91.4739     7.3435     0.1282     2.4559     0.0013
  758.5000   -62.7008     6.0602     7.5862    89.6079     7.1768     0.1281     2.4559    -0.0010
  759.0000   -62.7130     6.0068     7.5131    86.7402     7.4553     0.1271     2.4559     0.0015
  759.5000   -62.7254     5.9538     7.4364    83.8216     7.8144     0.1329     2.4553     0.0044
  760.0000   -62.7383     5.9013     7.3605    82.6944     7.9837     0.1388     2.4487     0.0089
  760.5000   -62.7491     5.8491     7.3214    85.3808     8.0684     0.1434     2.4409     0.0162
