~VERSION INFORMATION
 VERS.                2.0:   CWLS LOG ASCII STANDARD - VERSION 2.0
 WRAP.                 NO:   ONE LINE PER DEPTH STEP
~WELL INFORMATION
#MNEM.UNIT      DATA TYPE    INFORMATION
#----------   ------------   ------------------------------
 STRT.F           32.0000:   START DEPTH
 STOP.F         1082.0000:   STOP DEPTH
 STEP.F            0.5000:   STEP LENGTH
 NULL.          -999.2500:   NO VALUE
 COMP. FENIX & SCISSON INC:   COMPANY
 WELL. NAVAL PETROLEUM RESERVE 3 SX #55-14:   WELL
 FLD .        TEAPOT DOME:   FIELD
 LOC .      S14 T38N R78W:   LOCATION
 CNTY.            NATRONA:   COUNTY
 STAT.            WYOMING:   STATE
 CTRY. UNITED STATES OF AMERICA:   COUNTRY
 SRVC.            Unknown:   SERVICE COMPANY
 DATE.        22-APR-1978:   LOGDATE
 API .       490251061100:   API NUMBER
~CURVE INFORMATION
#MNEM.UNIT       API CODE    CURVE DESCRIPTION
#----------   ------------   ------------------------------
 DEPT.F                  :   
 SPR .MV     05 010 01 00:   SPONTANEOUS POTENTIAL FROM RES.
 ILD .OHMM   05 120 46 00:   INDUCTION LOG DEEP
 SN  .OHMM   05 040 16 00:   SHORT NORMAL 16"
 GRD .GAPI   45 310 01 00:   GAMMA RAY FROM DENSITY LOG
 CALD.IN     45 280 60 00:   CALIPER
 DPOR.DEC    45 890 12 00:   DENSITY POROSITY SANDSTONE
 RHOB.G/C3   45 350 01 00:   BULK DENSITY
 CORR.G/C3   45 356 01 00:   DENSITY CORRECTION
~PARAMETER INFORMATION
#MNEM.UNIT          VALUE    DESCRIPTION
#----------   ------------   ------------------------------
 PD  .                 GL:   PERMANENT DATUM
 EPD .F              5288:   ELEVATION PERMANENT DATUM
 LMF .                 KB:   LOG MEASURED FROM
 DAPD.F                 4:   FEET ABOVE PERMANENT DATUM
 DMF .                 KB:   DRILLING MEASURED FROM
 EKB .F              5292:   KELLING BUSHING
 EGL .F              5288:   GROUND LEVEL
 DATE.            4-22-78:   RUN DATE
 RUN .                  1:   RUN NUMBER
 DD  .F              1080:   DEPTH DRILLER
 DL  .F              1080:   DEPTH LOGGER
 BLI .F              1074:   BOTTOM LOG INTERVAL
 TLI .F                50:   TOP LOG INTERVAL
 CS  .IN            8.625:   CASING SIZE
 CBD .F                40:   CASING BOTTOM DRILLER
 CBL .F                40:   CASING BOTTOM LOGGER
 BS  .IN            7.875:   BIT SIZE
 BSD .F              1080:   BIT SIZE AT DEPTH
 DFT .                KCL:   DRILLING FLUID TYPE
 DFD .                8.6:   DRILLING FLUID DENSITY
 DFV .                 33:   DRILLING FLUID VISCOSITY
 DFPH.               10.2:   DRILLING FLUID PH
 DFL .                8.6:   DRILLING FLUID LOSS
 MSS .            MUD PIT:   MUD SAMPLE SOURCE
 RMS .OHMM            .42:   RESISTIVITY MUD SAMPLE
 MST .F                60:   MUD SAMPLE TEMPERATURE
 RMF .OHMM            .38:   RESISTIVITY MUD FILTRATE SAMPLE
 MFST.F                62:   MUD FILTRATE SAMPLE TEMPERATURE
 RMC .OHMM             .7:   RESISTIVITY MUD CAKE
 MCST.F                62:   MUD CAKE SAMPLE TEMPERATURE
 MFSS.           MEASURED:   MUD FILTRATE SAMPLE SOURCE
 MCSS.           MEASURED:   MUD CAKE SAMPLE SOURCE
 RMB .OHMM            .34:   RESISTIVITY MUD AT BHT
 BHT .F                74:   BOTTOM HOLE TEMPERATURE
 TCS .HRS               5:   TIME CURCULATED STOPPED
 MRT .F                74:   MAXIMUM RECORDED TEMPERATURE
 LUN .               2958:   LOGGING UNIT NUMBER
 LUL .               CASP:   LOGGING UNIT LOCATION
 ENGI.             MILLER:   RECORDING ENGINEER
 WITN.           MCGINLEY:   WITNESSED BY
 CLNT.            A2DTECH:   CLIENT CODE
 ORIG.        2" 5" PRINT:   ORIGIN OF DATA
 UWI .       490251061100:   UNIQUE WELL ID
 DICO. A2D Technologies, Inc.:   DIGITIZING COMPANY
~OTHER INFORMATION
~A   DEPT      SPR        ILD         SN         GRD      CALD       DPOR       RHOB       CORR   
# ...
  437.0000   -58.1348     9.1083     8.8435    87.8961     7.6747     0.1778     2.3777     0.0112
  437.5000   -58.1318     9.3854     8.9977    82.4833     7.5802     0.1747     2.3760     0.0109
  438.0000   -58.1326     9.6708     9.1692    81.9449     7.4877     0.1723     2.3761     0.0129
  438.5000   -58.1314     9.9025     9.4225    76.4997     7.4525     0.1783     2.3776     0.0155
  439.0000   -58.0565    10.1185     9.6849    72.0698     7.4198     0.1814     2.3774     0.0167
  439.5000   -57.8661    10.3391     9.9538    69.5222     7.3876     0.1788     2.3725     0.0163
  440.0000   -57.7308    10.5865    10.2042    68.3268     7.3535     0.1761     2.3709     0.0156
  440.5000   -57.7435    10.6049    10.2570    67.5573     7.3311     0.1807     2.3715     0.0154
  441.0000   -57.7534    10.6252    10.2977    67.4669     7.3847     0.1815     2.3710     0.0160
  441.5000   -57.7633    10.6454    10.3950    67.3664     7.4434     0.1834     2.3665     0.0166
  442.0000   -57.7732    10.6661    10.4941    69.6707     7.4673     0.1867     2.3620     0.0223
  442.5000   -57.7830    10.7337    10.5883    72.3201     7.4394     0.1728     2.3579     0.0290
  443.0000   -57.7929    10.9147    10.8098    73.5714     7.2512     0.1706     2.3598     0.0366
  443.5000   -57.8027    11.0627    10.9980    73.1666     7.1156     0.1688     2.3771     0.0464
  444.0000   -57.8126    11.2122    11.0782    73.0652     7.1266     0.1713     2.3899     0.0562
  444.5000   -57.8224    11.3637    11.1590    74.8536     7.1431     0.1787     2.3848     0.0509
  445.0000   -57.8323    11.5173    11.2403    77.0800     7.1604     0.1854     2.3767     0.0437
  445.5000   -57.8421    11.6729    11.3223    78.4034     7.1804     0.1861     2.3684     0.0383
  446.0000   -57.8520    11.8307    11.4048    76.3351     7.2083     0.1871     2.3610     0.0263
  446.5000   -57.8618    11.9905    11.4880    72.5488     7.2676     0.1880     2.3611     0.0135
  447.0000   -57.8717    12.1524    11.5717    68.6837     7.3299     0.1889     2.3616     0.0121
  447.5000   -57.8815    12.2693    11.6561    67.5694     7.5216     0.1898     2.3596     0.0066
  448.0000   -57.8914    12.5133    11.7411    67.8996     7.7277     0.1894     2.3556    -0.0027
  448.5000   -57.9012    12.7890    11.8266    70.0900     7.8753     0.1830     2.3537    -0.0030
  449.0000   -57.9110    12.8922    11.9129    70.7441     7.8457     0.1826     2.3533    -0.0030
  449.5000   -57.9206    12.9487    11.9997    71.0563     7.8036     0.1857     2.3537    -0.0023
  450.0000   -57.9316    13.0047    12.1716    70.7695     7.7588     0.1828     2.3578    -0.0008
  450.5000   -58.0128    13.0615    12.4389    70.5878     7.6634     0.1785     2.3663     0.0007
  451.0000   -58.1031    13.2300    12.6330    70.7287     7.4053     0.1766     2.3751     0.0020
  451.5000   -58.1933    13.4928    12.6880    70.4730     7.1447     0.1842     2.3751     0.0019
  452.0000   -58.2834    13.7607    12.7798    68.3101     6.8862     0.1887     2.3663     0.0020
  452.5000   -58.3735    13.9874    12.9931    66.1870     6.8656     0.1927     2.3575     0.0050
  453.0000   -58.4636    14.0905    13.2094    64.0591     7.1940     0.2033     2.3489     0.0166
  453.5000   -58.5538    14.1944    13.4300    61.9258     7.6262     0.2044     2.3389     0.0216
  454.0000   -58.6446    14.4274    13.6535    60.2262     7.5655     0.1982     2.3287     0.0264
  454.5000   -58.7316    14.7068    13.8315    62.6591     7.5527     0.1858     2.3258     0.0442
  455.0000   -58.7081    14.7988    13.7172    65.2013     7.5796     0.1846     2.3546     0.0593
  455.5000   -58.6794    14.8545    13.6240    68.1416     7.6169     0.1731     2.3598     0.0681
  456.0000   -58.6512    14.8903    13.5313    72.3326     7.6141     0.1631     2.3771     0.0776
  456.5000   -58.6232    14.6244    13.3975    71.2014     7.6065     0.1717     2.4057     0.0985
  457.0000   -58.5952    14.4262    13.0530    69.3489     7.6118     0.1779     2.4174     0.1013
  457.5000   -58.5661    14.3511    12.7286    67.4942     7.6387     0.1802     2.3739     0.0791
  458.0000   -58.5378    14.3511    12.7306    65.6548     7.6654     0.1782     2.3641     0.0577
  458.5000   -58.5918    14.3511    12.7310    65.6994     7.6778     0.1739     2.3712     0.0535
  459.0000   -59.0076    14.0165    12.7302    66.6568     7.6673     0.1723     2.3728     0.0507
  459.5000   -59.6012    13.5659    12.4044    67.5955     7.6567     0.1707     2.3769     0.0480
  460.0000   -60.2114    13.1298    12.0705    68.5844     7.6462     0.1702     2.3811     0.0444
  460.5000   -60.3791    12.7302    11.8250    70.8909     7.6402     0.1689     2.3826     0.0395
  461.0000   -60.4470    12.6432    11.7648    71.5003     7.6404     0.1654     2.3839     0.0347
  461.5000   -60.5122    12.5430    11.6753    69.6229     7.6398     0.1619     2.3872     0.0302
  462.0000   -60.5788    12.4435    11.5866    69.6158     7.6003     0.1584     2.3945     0.0278
  462.5000   -60.6450    12.3449    11.4979    77.7485     7.5880     0.1551     2.3998     0.0255
  463.0000   -60.7142    12.1566    11.4133    82.5582     7.5956     0.1522     2.4047     0.0232
  463.5000   -60.8697    11.3210    11.1141    82.3525     7.5685     0.1492     2.4117     0.0209
  464.0000   -61.2436    10.5680    10.7873    82.6317     7.5073     0.1462     2.4189     0.0174
  464.5000   -61.6167     9.8651    10.4700    85.7156     7.5519     0.1438     2.4202     0.0139
  465.0000   -61.7455     9.2090    10.0268    87.3581     7.5951     0.1417     2.4350     0.0105
  465.5000   -61.7477     8.5965     9.5605    89.0321     7.6380     0.1397     2.4392     0.0072
  466.0000   -61.7472     8.0247     9.0732    90.5389     7.6811     0.1384     2.4431     0.0038
  466.5000   -61.7470     7.3974     8.5694    89.6038     7.7351     0.1406     2.4451     0.0009
  467.0000   -61.7470     7.0161     8.0921    87.0514     7.7102     0.1444     2.4390     0.0010
  467.5000   -61.7470     6.6889     7.6414    87.1006     7.6839     0.1469     2.4311     0.0011
  468.0000   -61.7470     6.4354     7.0544    89.2962     7.6870     0.1448     2.4256     0.0013
  468.5000   -61.7470     6.2836     6.9889    92.0260     7.6973     0.1438     2.4279     0.0015
  469.0000   -61.7470     6.1353     6.9926    95.3639     7.7077     0.1438     2.4301     0.0018
  469.5000   -61.7470     6.0311     6.9906   100.9450     7.7295     0.1456     2.4302     0.0020
  470.0000   -61.7470     6.0256     6.9915   109.2885     7.8468     0.1490     2.4293     0.0015
  470.5000   -61.7470     6.0202     6.9915   107.9326     7.8812     0.1509     2.4279     0.0010
  471.0000   -61.7470     6.0148     6.9915   105.2877     7.8933     0.1481     2.4202     0.0004
  471.5000   -61.7470     6.0094     6.9915   103.2952     7.9047     0.1475     2.4177    -0.0001
  472.0000   -61.7470     6.0040     6.9118    97.8221     7.9110     0.1438     2.4326    -0.0006
  472.5000   -61.7470     5.9985     6.7929    90.7144     7.9110     0.1392     2.4282    -0.0011
  473.0000   -61.7470     5.9932     6.7384    90.5417     7.9110     0.1357     2.4193    -0.0016
  473.5000   -61.7470     5.9878     6.7384    92.1927     7.9110     0.1330     2.4454    -0.0014
  474.0000   -61.7470     5.9823     6.7532    93.8196     7.9133     0.1309     2.4492     0.0009
  474.5000   -61.7470     5.9776     6.7890    95.1873     7.9254     0.1301     2.4508     0.0032
  475.0000   -61.7470     6.0051     6.8252    95.7744     7.9373     0.1297     2.4532     0.0055
  475.5000   -61.7470     6.0310     6.8616    99.5057     7.9493     0.1306     2.4550     0.0069
  476.0000   -61.7470     6.0573     6.8981   107.3328     7.9466     0.1307     2.4545     0.0069
  476.5000   -61.7470     6.0884     6.9274   105.2193     7.9423     0.1307     2.4537     0.0065
  477.0000   -61.7470     6.0707     6.8904   103.1150     7.9380     0.1296     2.4530     0.0057
