~VERSION INFORMATION
 VERS.                2.0:   CWLS LOG ASCII STANDARD - VERSION 2.0
 WRAP.                 NO:   ONE LINE PER DEPTH STEP
~WELL INFORMATION
#MNEM.UNIT      DATA TYPE    INFORMATION
#----------   ------------   ------------------------------
 STRT.F           32.0000:   START DEPTH
 STOP.F         1082.0000:   STOP DEPTH
 STEP.F            0.5000:   STEP LENGTH
 NULL.          -999.2500:   NO VALUE
 COMP. FENIX & SCISSON INC:   COMPANY
 WELL. NAVAL PETROLEUM RESERVE 3 SX #55-14:   WELL
 FLD .        TEAPOT DOME:   FIELD
 LOC .      S14 T38N R78W:   LOCATION
 CNTY.            NATRONA:   COUNTY
 STAT.            WYOMING:   STATE
 CTRY. UNITED STATES OF AMERICA:   COUNTRY
 SRVC.            Unknown:   SERVICE COMPANY
 DATE.        22-APR-1978:   LOGDATE
 API .       490251061100:   API NUMBER
~CURVE INFORMATION
#MNEM.UNIT       API CODE    CURVE DESCRIPTION
#----------   ------------   ------------------------------
 DEPT.F                  :   
 SPR .MV     05 010 01 00:   SPONTANEOUS POTENTIAL FROM RES.
 ILD .OHMM   05 120 46 00:   INDUCTION LOG DEEP
 SN  .OHMM   05 040 16 00:   SHORT NORMAL 16"
 GRD .GAPI   45 310 01 00:   GAMMA RAY FROM DENSITY LOG
 CALD.IN     45 280 60 00:   CALIPER
 DPOR.DEC    45 890 12 00:   DENSITY POROSITY SANDSTONE
 RHOB.G/C3   45 350 01 00:   BULK DENSITY
 CORR.G/C3   45 356 01 00:   DENSITY CORRECTION
~PARAMETER INFORMATION
#MNEM.UNIT          VALUE    DESCRIPTION
#----------   ------------   ------------------------------
 PD  .                 GL:   PERMANENT DATUM
 EPD .F              5288:   ELEVATION PERMANENT DATUM
 LMF .                 KB:   LOG MEASURED FROM
 DAPD.F                 4:   FEET ABOVE PERMANENT DATUM
 DMF .                 KB:   DRILLING MEASURED FROM
 EKB .F              5292:   KELLING BUSHING
 EGL .F              5288:   GROUND LEVEL
 DATE.            4-22-78:   RUN DATE
 RUN .                  1:   RUN NUMBER
 DD  .F              1080:   DEPTH DRILLER
 DL  .F              1080:   DEPTH LOGGER
 BLI .F              1074:   BOTTOM LOG INTERVAL
 TLI .F                50:   TOP LOG INTERVAL
 CS  .IN            8.625:   CASING SIZE
 CBD .F                40:   CASING BOTTOM DRILLER
 CBL .F                40:   CASING BOTTOM LOGGER
 BS  .IN            7.875:   BIT SIZE
 BSD .F              1080:   BIT SIZE AT DEPTH
 DFT .                KCL:   DRILLING FLUID TYPE
 DFD .                8.6:   DRILLING FLUID DENSITY
 DFV .                 33:   DRILLING FLUID VISCOSITY
 DFPH.               10.2:   DRILLING FLUID PH
 DFL .                8.6:   DRILLING FLUID LOSS
 MSS .            MUD PIT:   MUD SAMPLE SOURCE
 RMS .OHMM            .42:   RESISTIVITY MUD SAMPLE
 MST .F                60:   MUD SAMPLE TEMPERATURE
 RMF .OHMM            .38:   RESISTIVITY MUD FILTRATE SAMPLE
 MFST.F                62:   MUD FILTRATE SAMPLE TEMPERATURE
 RMC .OHMM             .7:   RESISTIVITY MUD CAKE
 MCST.F                62:   MUD CAKE SAMPLE TEMPERATURE
 MFSS.           MEASURED:   MUD FILTRATE SAMPLE SOURCE
 MCSS.           MEASURED:   MUD CAKE SAMPLE SOURCE
 RMB .OHMM            .34:   RESISTIVITY MUD AT BHT
 BHT .F                74:   BOTTOM HOLE TEMPERATURE
 TCS .HRS               5:   TIME CURCULATED STOPPED
 MRT .F                74:   MAXIMUM RECORDED TEMPERATURE
 LUN .               2958:   LOGGING UNIT NUMBER
 LUL .               CASP:   LOGGING UNIT LOCATION
 ENGI.             MILLER:   RECORDING ENGINEER
 WITN.           MCGINLEY:   WITNESSED BY
 CLNT.            A2DTECH:   CLIENT CODE
 ORIG.        2" 5" PRINT:   ORIGIN OF DATA
 UWI .       490251061100:   UNIQUE WELL ID
 DICO. A2D Technologies, Inc.:   DIGITIZING COMPANY
~OTHER INFORMATION
~A   DEPT      SPR        ILD         SN         GRD      CALD       DPOR       RHOB       CORR   
   32.0000  -999.2500  -999.2500  -999.2500    69.5836  -999.2500  -999.2500  -999.2500  -999.2500
   32.5000  -999.2500  -999.2500  -999.2500    68.8229  -999.2500  -999.2500  -999.2500  -999.2500
   33.0000  -999.2500  -999.2500  -999.2500    68.0623  -999.2500  -999.2500  -999.2500  -999.2500
   33.5000  -999.2500  -999.2500  -999.2500    67.4500  -999.2500  -999.2500  -999.2500  -999.2500
   34.0000  -999.2500  -999.2500  -999.2500    66.7693  -999.2500  -999.2500  -999.2500  -999.2500
   34.5000  -999.2500  -999.2500  -999.2500    66.7894  -999.2500  -999.2500  -999.2500  -999.2500
   35.0000  -999.2500  -999.2500  -999.2500    66.8030  -999.2500  -999.2500  -999.2500  -999.2500
   35.5000  -999.2500  -999.2500  -999.2500    66.5994  -999.2500  -999.2500  -999.2500  -999.2500
   36.0000  -999.2500  -999.2500  -999.2500    65.6646  -999.2500  -999.2500  -999.2500  -999.2500
   36.5000  -999.2500  -999.2500  -999.2500    57.4338  -999.2500  -999.2500  -999.2500  -999.2500
   37.0000  -999.2500  -999.2500  -999.2500    51.8737  -999.2500  -999.2500  -999.2500  -999.2500
   37.5000  -999.2500  -999.2500  -999.2500    50.5491  -999.2500  -999.2500  -999.2500  -999.2500
   38.0000  -999.2500  -999.2500  -999.2500    51.3856  -999.2500  -999.2500  -999.2500  -999.2500
   38.5000  -999.2500  -999.2500  -999.2500    50.2853  -999.2500  -999.2500  -999.2500  -999.2500
   39.0000  -999.2500  -999.2500  -999.2500    45.8115  -999.2500  -999.2500  -999.2500  -999.2500
   39.5000  -999.2500  -999.2500  -999.2500    45.2931     7.7650  -999.2500  -999.2500  -999.2500
   40.0000  -999.2500  -999.2500  -999.2500    45.3111     7.6806  -999.2500  -999.2500  -999.2500
   40.5000  -999.2500  -999.2500  -999.2500    45.3005     7.6431  -999.2500  -999.2500  -999.2500
   41.0000  -999.2500  -999.2500  -999.2500    45.1749     7.6249  -999.2500  -999.2500  -999.2500
   41.5000  -999.2500  -999.2500  -999.2500    45.1324     7.5247  -999.2500  -999.2500  -999.2500
   42.0000  -999.2500  -999.2500  -999.2500    45.3499     7.3289  -999.2500  -999.2500  -999.2500
   42.5000  -999.2500  -999.2500  -999.2500    45.5774     7.2115  -999.2500  -999.2500  -999.2500
   43.0000  -999.2500  -999.2500  -999.2500    45.8497     7.1996  -999.2500  -999.2500  -999.2500
   43.5000  -999.2500  -999.2500  -999.2500    46.3700     7.1870     0.2043  -999.2500  -999.2500
   44.0000  -999.2500  -999.2500  -999.2500    47.5489     7.1759     0.1899     2.3610     0.0285
   44.5000  -999.2500  -999.2500  -999.2500    52.0765     7.1804     0.1849     2.3536     0.0115
   45.0000  -999.2500  -999.2500  -999.2500    64.3494     7.2226     0.1809     2.3533     0.0016
   45.5000  -999.2500  -999.2500  -999.2500    71.7724     7.2540     0.1759     2.3607     0.0062
   46.0000  -999.2500  -999.2500  -999.2500    77.6249     7.3759     0.1743     2.3721     0.0062
   46.5000  -999.2500  -999.2500  -999.2500    78.7951     7.4433     0.1727     2.3779     0.0006
   47.0000  -999.2500  -999.2500  -999.2500    78.4054     7.5130     0.1661     2.3790    -0.0019
   47.5000  -999.2500  -999.2500  -999.2500    76.0554     7.5847     0.1645     2.3821    -0.0019
   48.0000   -51.8038     4.5688     4.7033    73.7499     7.7255     0.1652     2.3951     0.0013
   48.5000   -56.5261     4.6104     4.9161    71.4432     7.8682     0.1602     2.3962     0.0081
   49.0000   -57.3006     4.6525     5.1599    69.3226     8.0102     0.1521     2.4005     0.0084
   49.5000   -57.9321     4.6772     5.2899    69.2109     8.0863     0.1492     2.4102     0.0163
   50.0000   -58.7369     4.6556     5.4293    71.9417     8.0658     0.1467     2.4202     0.0230
   50.5000   -59.2689     4.6524     5.5523    74.9934     7.9887     0.1441     2.4212     0.0298
   51.0000   -59.7425     4.6493     5.5778    76.5430     7.8814     0.1406     2.4278     0.0366
   51.5000   -60.3170     4.6461     5.6047    78.0355     7.7572     0.1372     2.4376     0.0431
   52.0000   -60.8001     4.6430     5.6318    79.1620     7.6334     0.1358     2.4469     0.0558
   52.5000   -61.0073     4.6398     5.6684    78.3636     7.5096     0.1487     2.4456     0.0682
   53.0000   -61.2337     4.6367     5.7713    77.8074     7.3859     0.1633     2.4375     0.0684
   53.5000   -61.7985     4.6335     5.8347    77.8153     7.2625     0.1779     2.4147     0.0575
   54.0000   -62.3578     4.6304     5.8691    78.4620     7.0704     0.1926     2.3921     0.0369
   54.5000   -62.7582     4.6272     6.0465    79.6127     6.8608     0.2006     2.3696     0.0162
   55.0000   -62.7435     4.6241     6.2190    76.6669     6.7302     0.2020     2.3472     0.0084
   55.5000   -63.0956     4.6210     6.4004    71.7867     6.6666     0.1968     2.3355     0.0086
   56.0000   -63.3545     4.6173     6.6159    69.5026     6.8924     0.1829     2.3333     0.0115
   56.5000   -63.3516     4.6449     6.6153    72.6743     7.1927     0.1757     2.3624     0.0136
   57.0000   -63.6839     4.6769     6.6311    74.6089     7.4931     0.1742     2.3718     0.0129
   57.5000   -63.9506     4.7091     6.7489    75.3409     7.7233     0.1727     2.3781     0.0121
   58.0000   -63.9581     4.7464     6.8644    78.6911     7.9389     0.1712     2.3830     0.0119
   58.5000   -64.0579     4.6982     6.8637    79.5783     8.1543     0.1697     2.3842     0.0119
   59.0000   -64.2792     4.6513     6.8638    78.5005     8.1687     0.1680     2.3854     0.0124
   59.5000   -64.5005     4.6234     6.8509    77.4208     8.1629     0.1658     2.3863     0.0234
   60.0000   -64.7265     4.5956     6.8336    76.4053     8.0173     0.1636     2.3904     0.0371
   60.5000   -64.6718     4.5750     6.8162    75.8872     7.8740     0.1616     2.3997     0.0485
   61.0000   -64.5645     4.4930     6.8008    75.8559     7.7326     0.1689     2.4038     0.0518
   61.5000   -64.6213     4.4171     6.7014    73.9912     7.6216     0.1756     2.3904     0.0534
   62.0000   -64.6928     4.3426     6.6136    73.1385     7.5574     0.1781     2.3772     0.0470
   62.5000   -64.7566     4.3254     6.5026    74.8733     7.4241     0.1821     2.3739     0.0426
   63.0000   -64.7236     4.3199     6.1899    78.9617     7.2924     0.1918     2.3760     0.0422
   63.5000   -64.6886     4.3144     5.8511    81.0472     7.1882     0.2016     2.3581     0.0312
   64.0000   -64.6541     4.3089     5.7465    80.4627     7.0941     0.2028     2.3398     0.0201
   64.5000   -64.6197     4.3034     5.6398    78.6265     7.0036     0.1766     2.3328     0.0152
   65.0000   -64.5852     4.2980     5.5533    78.2096     7.0056     0.1752     2.3500     0.0171
   65.5000   -64.5508     4.2926     5.4926    78.4675     7.1103     0.1733     2.3708     0.0190
   66.0000   -64.5164     4.2891     5.4626    78.7356     7.2221     0.1683     2.3765     0.0168
   66.5000   -64.4819     4.3955     5.4270    78.9989     7.3328     0.1601     2.3820     0.0099
   67.0000   -64.4474     4.4757     5.3869    79.2522     7.4426     0.1579     2.3893     0.0082
   67.5000   -64.4129     4.5789     5.3513    78.8663     7.6065     0.1564     2.3986     0.0101
   68.0000   -64.3791     4.7375     5.4700    77.6586     7.7820     0.1549     2.4079     0.0121
   68.5000   -64.3727     4.9015     5.5797    77.0408     7.9639     0.1522     2.4120     0.0121
   69.0000   -64.4145     5.0633     5.6916    76.9517     8.0720     0.1459     2.4136     0.0101
   69.5000   -64.4556     5.2717     5.9176    76.8874     8.1649     0.1410     2.4174     0.0108
   70.0000   -64.4968     5.4509     6.1726    75.3683     8.1845     0.1397     2.4288     0.0159
   70.5000   -64.5380     5.5050     6.4386    73.4858     8.1001     0.1386     2.4387     0.0391
   71.0000   -64.5792     5.6545     6.5152    71.5786     7.9985     0.1390     2.4404     0.0463
   71.5000   -64.6204     5.7080     6.5415    71.4147     7.7180     0.1408     2.4423     0.0511
   72.0000   -64.6616     5.7311     6.5678    74.5064     7.5167     0.1468     2.4444     0.0521
