~VERSION INFORMATION
 VERS.                2.0:   CWLS LOG ASCII STANDARD - VERSION 2.0
 WRAP.                 NO:   ONE LINE PER DEPTH STEP
~WELL INFORMATION
#MNEM.UNIT      DATA TYPE    INFORMATION
#----------   ------------   ------------------------------
 STRT.F           32.0000:   START DEPTH
 STOP.F         1082.0000:   STOP DEPTH
 STEP.F            0.5000:   STEP LENGTH
 NULL.          -999.2500:   NO VALUE
 COMP. FENIX & SCISSON INC:   COMPANY
 WELL. NAVAL PETROLEUM RESERVE 3 SX #55-14:   WELL
 FLD .        TEAPOT DOME:   FIELD
 LOC .      S14 T38N R78W:   LOCATION
 CNTY.            NATRONA:   COUNTY
 STAT.            WYOMING:   STATE
 CTRY. UNITED STATES OF AMERICA:   COUNTRY
 SRVC.            Unknown:   SERVICE COMPANY
 DATE.        22-APR-1978:   LOGDATE
 API .       490251061100:   API NUMBER
~CURVE INFORMATION
#MNEM.UNIT       API CODE    CURVE DESCRIPTION
#----------   ------------   ------------------------------
 DEPT.F                  :   
 SPR .MV     05 010 01 00:   SPONTANEOUS POTENTIAL FROM RES.
 ILD .OHMM   05 120 46 00:   INDUCTION LOG DEEP
 SN  .OHMM   05 040 16 00:   SHORT NORMAL 16"
 GRD .GAPI   45 310 01 00:   GAMMA RAY FROM DENSITY LOG
 CALD.IN     45 280 60 00:   CALIPER
 DPOR.DEC    45 890 12 00:   DENSITY POROSITY SANDSTONE
 RHOB.G/C3   45 350 01 00:   BULK DENSITY
 CORR.G/C3   45 356 01 00:   DENSITY CORRECTION
~PARAMETER INFORMATION
#MNEM.UNIT          VALUE    DESCRIPTION
#----------   ------------   ------------------------------
 PD  .                 GL:   PERMANENT DATUM
 EPD .F              5288:   ELEVATION PERMANENT DATUM
 LMF .                 KB:   LOG MEASURED FROM
 DAPD.F                 4:   FEET ABOVE PERMANENT DATUM
 DMF .                 KB:   DRILLING MEASURED FROM
 EKB .F              5292:   KELLING BUSHING
 EGL .F              5288:   GROUND LEVEL
 DATE.            4-22-78:   RUN DATE
 RUN .                  1:   RUN NUMBER
 DD  .F              1080:   DEPTH DRILLER
 DL  .F              1080:   DEPTH LOGGER
 BLI .F              1074:   BOTTOM LOG INTERVAL
 TLI .F                50:   TOP LOG INTERVAL
 CS  .IN            8.625:   CASING SIZE
 CBD .F                40:   CASING BOTTOM DRILLER
 CBL .F                40:   CASING BOTTOM LOGGER
 BS  .IN            7.875:   BIT SIZE
 BSD .F              1080:   BIT SIZE AT DEPTH
 DFT .                KCL:   DRILLING FLUID TYPE
 DFD .                8.6:   DRILLING FLUID DENSITY
 DFV .                 33:   DRILLING FLUID VISCOSITY
 DFPH.               10.2:   DRILLING FLUID PH
 DFL .                8.6:   DRILLING FLUID LOSS
 MSS .            MUD PIT:   MUD SAMPLE SOURCE
 RMS .OHMM            .42:   RESISTIVITY MUD SAMPLE
 MST .F                60:   MUD SAMPLE TEMPERATURE
 RMF .OHMM            .38:   RESISTIVITY MUD FILTRATE SAMPLE
 MFST.F                62:   MUD FILTRATE SAMPLE TEMPERATURE
 RMC .OHMM             .7:   RESISTIVITY MUD CAKE
 MCST.F                62:   MUD CAKE SAMPLE TEMPERATURE
 MFSS.           MEASURED:   MUD FILTRATE SAMPLE SOURCE
 MCSS.           MEASURED:   MUD CAKE SAMPLE SOURCE
 RMB .OHMM            .34:   RESISTIVITY MUD AT BHT
 BHT .F                74:   BOTTOM HOLE TEMPERATURE
 TCS .HRS               5:   TIME CURCULATED STOPPED
 MRT .F                74:   MAXIMUM RECORDED TEMPERATURE
 LUN .               2958:   LOGGING UNIT NUMBER
 LUL .               CASP:   LOGGING UNIT LOCATION
 ENGI.             MILLER:   RECORDING ENGINEER
 WITN.           MCGINLEY:   WITNESSED BY
 CLNT.            A2DTECH:   CLIENT CODE
 ORIG.        2" 5" PRINT:   ORIGIN OF DATA
 UWI .       490251061100:   UNIQUE WELL ID
 DICO. A2D Technologies, Inc.:   DIGITIZING COMPANY
~OTHER INFORMATION
~A   DEPT      SPR        ILD         SN         GRD      CALD       DPOR       RHOB       CORR   
# ...
  963.5000   -56.7310     9.6419    10.0715    66.6720     7.7471     0.1493     2.4295     0.0374
  964.0000   -56.9548     9.5949    10.0237    69.3033     7.7003     0.1560     2.4351     0.0372
  964.5000   -57.0638     9.5481     9.9968    70.4726     7.7056     0.1540     2.4239     0.0252
  965.0000   -57.1725     9.5015     9.9736    69.2581     7.7145     0.1513     2.4051     0.0093
  965.5000   -57.2837     9.4552     9.9505    67.7937     7.7087     0.1513     2.4109     0.0069
  966.0000   -57.4051     9.4091     9.9274    68.0011     7.6946     0.1464     2.4175     0.0064
  966.5000   -57.6139     9.3724     9.9043    68.3496     7.6802     0.1405     2.4243     0.0076
  967.0000   -57.7342     9.3420     9.8813    65.1383     7.6920     0.1346     2.4314     0.0087
  967.5000   -57.7988     9.3117     9.8586    61.1190     7.7106     0.1303     2.4397     0.0099
  968.0000   -57.8647     9.2815     9.8347    60.8790     7.7294     0.1305     2.4482     0.0094
  968.5000   -57.9297     9.2514     9.8612    65.0008     7.7333     0.1310     2.4559     0.0085
  969.0000   -57.9579     9.2214     9.8904    66.6703     7.7243     0.1303     2.4552     0.0076
  969.5000   -58.0273     9.1915     9.9199    66.3504     7.7152     0.1294     2.4541     0.0067
  970.0000   -58.0963     9.1616     9.9495    66.0572     7.7061     0.1324     2.4514     0.0059
  970.5000   -58.1656     9.1350     9.9792    65.9909     7.6981     0.1371     2.4484     0.0050
  971.0000   -58.2348     9.1529    10.0173    64.4758     7.7037     0.1366     2.4455     0.0040
  971.5000   -58.3040     9.1697    10.0169    63.0806     7.7096     0.1342     2.4430     0.0030
  972.0000   -58.3731     9.1865    10.0168    63.6844     7.7155     0.1316     2.4439     0.0019
  972.5000   -58.4428     9.2032    10.0168    62.8355     7.7175     0.1291     2.4453     0.0010
  973.0000   -58.5100     9.2194    10.0167    59.8372     7.7170     0.1280     2.4466     0.0010
  973.5000   -58.6987     9.2566    10.0172    60.1236     7.7394     0.1265     2.4506     0.0010
  974.0000   -58.9357     9.2920    10.0536    62.9474     7.7645     0.1246     2.4554     0.0010
  974.5000   -59.1414     9.3275    10.1247    65.8112     7.7671     0.1213     2.4599     0.0010
  975.0000   -59.1367     9.3631    10.1963    66.9630     7.7525     0.1120     2.4695     0.0010
  975.5000   -59.1883     9.3964    10.2685    67.1172     7.7375     0.1129     2.4795     0.0010
  976.0000   -59.4547     9.4213    10.3413    66.8078     7.7223     0.1202     2.4894     0.0010
  976.5000   -59.7149     9.4463    10.3931    66.2431     7.7176     0.1244     2.4930     0.0003
  977.0000   -59.9718     9.4713    10.3790    65.6725     7.7197     0.1244     2.4637    -0.0026
  977.5000   -60.1427     9.4965    10.3593    65.0968     7.7384     0.1263     2.4598    -0.0050
  978.0000   -60.1403     9.5217    10.3396    64.8986     7.7572     0.1270     2.4577    -0.0043
  978.5000   -60.1408     9.5469    10.3197    65.6868     7.7753     0.1291     2.4505    -0.0024
  979.0000   -60.1406     9.5655    10.3010    66.9707     7.7797     0.1232     2.4485    -0.0010
  979.5000   -60.1406     9.4751    10.2232    70.6700     7.7836     0.1250     2.4605    -0.0010
  980.0000   -60.1406     9.3903    10.1388    74.0787     7.7876     0.1263     2.4680    -0.0010
  980.5000   -60.1406     9.3067    10.0551    74.1433     7.7916     0.1181     2.4601    -0.0010
  981.0000   -60.1406     9.2239     9.9717    65.6229     7.7967     0.1156     2.4657    -0.0010
  981.5000   -60.1406     9.1418     9.9250    65.1340     7.8077     0.1183     2.4751    -0.0010
  982.0000   -60.1406     9.0605     9.9247    70.4183     7.8188     0.1204     2.4735    -0.0010
  982.5000   -60.1406     9.0343     9.9248    74.6850     7.8299     0.1206     2.4688    -0.0001
  983.0000   -60.1406     9.0156     9.9249    74.4691     7.8410     0.1207     2.4757     0.0010
  983.5000   -60.1406     8.9969     9.9249    73.4562     7.8521     0.1208     2.4815     0.0021
  984.0000   -60.1406     8.9783     9.9249    72.4475     7.8632     0.1211     2.4695     0.0030
  984.5000   -60.1406     8.9681     9.9249    72.0649     7.8712     0.1209     2.4674     0.0030
  985.0000   -60.1404     8.9785     9.9249    73.6722     7.8618     0.1203     2.4894     0.0030
  985.5000   -60.1406     8.9860     9.9249    73.4300     7.8527     0.1212     2.4845     0.0030
  986.0000   -60.1400     8.9935     9.9249    68.9374     7.8436     0.1239     2.4771     0.0026
  986.5000   -60.2477     9.0010     9.9249    68.3091     7.8346     0.1267     2.4677     0.0012
  987.0000   -60.4346     9.0085     9.9250    72.2527     7.8336     0.1261     2.4641    -0.0003
  987.5000   -60.5428     9.0161     9.9251    73.7312     7.8336     0.1216     2.4606    -0.0018
  988.0000   -60.5421     9.0236     9.9256    73.8628     7.8337     0.1172     2.4619    -0.0030
  988.5000   -60.5423     9.0312     9.8860    73.2589     7.8340     0.1145     2.4674    -0.0014
  989.0000   -60.5422     9.0388     9.8557    73.3654     7.8215     0.1188     2.4730     0.0001
  989.5000   -60.5422     9.0473     9.8255    73.3618     7.8066     0.1188     2.4727     0.0011
  990.0000   -60.5421     9.0502     9.7952    73.3628     7.7914     0.1222     2.4714     0.0013
  990.5000   -60.5421     8.8204     9.7652    73.3720     7.7765     0.1232     2.4710     0.0015
  991.0000   -60.5414     8.6602     9.7436    73.8545     7.7909     0.1213     2.4727     0.0018
  991.5000   -60.5818     8.6430     9.6701    75.3206     7.8078     0.1192     2.4734     0.0020
  992.0000   -60.6382     8.6076     9.5659    75.8325     7.7987     0.1172     2.4725     0.0022
  992.5000   -60.6949     8.4974     9.4629    74.9488     7.7775     0.1182     2.4720     0.0024
  993.0000   -60.7516     8.4018     9.3609    75.5571     7.8135     0.1198     2.4762     0.0026
  993.5000   -60.8082     8.3768     9.3046    76.4367     7.8513     0.1216     2.4747     0.0029
  994.0000   -60.8648     8.3519     9.2890    77.3495     7.8618     0.1216     2.4674     0.0023
  994.5000   -60.9215     8.3163     9.2657    79.5426     7.8709     0.1167     2.4649     0.0011
  995.0000   -60.9781     8.2038     9.2425    81.6012     7.8802     0.1114     2.4690    -0.0001
  995.5000   -61.0348     8.0928     9.2186    81.5786     7.8896     0.1062     2.4772    -0.0011
  996.0000   -61.0916     8.0144     9.2205    78.3600     7.8989     0.1028     2.4853    -0.0005
  996.5000   -61.1439     7.9510     9.0025    79.0645     7.9085     0.1006     2.4935     0.0097
  997.0000   -61.1449     7.8881     8.8523    82.3269     7.9028     0.1014     2.4974     0.0109
  997.5000   -61.1446     7.7387     8.7046    81.1731     7.8912     0.1061     2.4954     0.0109
  998.0000   -61.1446     7.4677     8.5594    79.9263     7.8794     0.1112     2.4931     0.0077
  998.5000   -61.1446     7.2551     8.4170    79.1890     7.8677     0.1184     2.4891     0.0020
  999.0000   -61.1446     7.2958     8.2749    79.3535     7.8559     0.1267     2.4842     0.0009
  999.5000   -61.1446     7.3309     8.1660    79.5076     7.8442     0.1277     2.4688    -0.0004
 1000.0000   -61.1446     7.3662     8.0291    79.5561     7.8344     0.1309     2.4545    -0.0018
 1000.5000   -61.1446     7.3915     7.8955    79.4984     7.8407     0.1380     2.4493    -0.0029
 1001.0000   -61.1446     6.8066     7.7642    79.0907     7.8472     0.1474     2.4442    -0.0017
 1001.5000   -61.1446     6.2510     7.3968    78.7926     7.8537     0.1568     2.4374    -0.0010
 1002.0000   -61.1446     5.6926     6.9902    82.1128     7.8601     0.1564     2.4225    -0.0010
 1002.5000   -61.1447     5.1840     6.6059    88.8319     7.8665     0.1355     2.4083    -0.0012
 1003.0000   -61.1448     4.7862     6.2427    95.6803     7.8760     0.1185     2.4066     0.0034
 1003.5000   -61.1438     4.8508     5.8994   101.4860     7.9057     0.1031     2.4687     0.0237
