~VERSION INFORMATION
 VERS.                2.0:   CWLS LOG ASCII STANDARD - VERSION 2.0
 WRAP.                 NO:   ONE LINE PER DEPTH STEP
~WELL INFORMATION
#MNEM.UNIT      DATA TYPE    INFORMATION
#----------   ------------   ------------------------------
 STRT.F           32.0000:   START DEPTH
 STOP.F         1082.0000:   STOP DEPTH
 STEP.F            0.5000:   STEP LENGTH
 NULL.          -999.2500:   NO VALUE
 COMP. FENIX & SCISSON INC:   COMPANY
 WELL. NAVAL PETROLEUM RESERVE 3 SX #55-14:   WELL
 FLD .        TEAPOT DOME:   FIELD
 LOC .      S14 T38N R78W:   LOCATION
 CNTY.            NATRONA:   COUNTY
 STAT.            WYOMING:   STATE
 CTRY. UNITED STATES OF AMERICA:   COUNTRY
 SRVC.            Unknown:   SERVICE COMPANY
 DATE.        22-APR-1978:   LOGDATE
 API .       490251061100:   API NUMBER
~CURVE INFORMATION
#MNEM.UNIT       API CODE    CURVE DESCRIPTION
#----------   ------------   ------------------------------
 DEPT.F                  :   
 SPR .MV     05 010 01 00:   SPONTANEOUS POTENTIAL FROM RES.
 ILD .OHMM   05 120 46 00:   INDUCTION LOG DEEP
 SN  .OHMM   05 040 16 00:   SHORT NORMAL 16"
 GRD .GAPI   45 310 01 00:   GAMMA RAY FROM DENSITY LOG
 CALD.IN     45 280 60 00:   CALIPER
 DPOR.DEC    45 890 12 00:   DENSITY POROSITY SANDSTONE
 RHOB.G/C3   45 350 01 00:   BULK DENSITY
 CORR.G/C3   45 356 01 00:   DENSITY CORRECTION
~PARAMETER INFORMATION
#MNEM.UNIT          VALUE    DESCRIPTION
#----------   ------------   ------------------------------
 PD  .                 GL:   PERMANENT DATUM
 EPD .F              5288:   ELEVATION PERMANENT DATUM
 LMF .                 KB:   LOG MEASURED FROM
 DAPD.F                 4:   FEET ABOVE PERMANENT DATUM
 DMF .                 KB:   DRILLING MEASURED FROM
 EKB .F              5292:   KELLING BUSHING
 EGL .F              5288:   GROUND LEVEL
 DATE.            4-22-78:   RUN DATE
 RUN .                  1:   RUN NUMBER
 DD  .F              1080:   DEPTH DRILLER
 DL  .F              1080:   DEPTH LOGGER
 BLI .F              1074:   BOTTOM LOG INTERVAL
 TLI .F                50:   TOP LOG INTERVAL
 CS  .IN            8.625:   CASING SIZE
 CBD .F                40:   CASING BOTTOM DRILLER
 CBL .F                40:   CASING BOTTOM LOGGER
 BS  .IN            7.875:   BIT SIZE
 BSD .F              1080:   BIT SIZE AT DEPTH
 DFT .                KCL:   DRILLING FLUID TYPE
 DFD .                8.6:   DRILLING FLUID DENSITY
 DFV .                 33:   DRILLING FLUID VISCOSITY
 DFPH.               10.2:   DRILLING FLUID PH
 DFL .                8.6:   DRILLING FLUID LOSS
 MSS .            MUD PIT:   MUD SAMPLE SOURCE
 RMS .OHMM            .42:   RESISTIVITY MUD SAMPLE
 MST .F                60:   MUD SAMPLE TEMPERATURE
 RMF .OHMM            .38:   RESISTIVITY MUD FILTRATE SAMPLE
 MFST.F                62:   MUD FILTRATE SAMPLE TEMPERATURE
 RMC .OHMM             .7:   RESISTIVITY MUD CAKE
 MCST.F                62:   MUD CAKE SAMPLE TEMPERATURE
 MFSS.           MEASURED:   MUD FILTRATE SAMPLE SOURCE
 MCSS.           MEASURED:   MUD CAKE SAMPLE SOURCE
 RMB .OHMM            .34:   RESISTIVITY MUD AT BHT
 BHT .F                74:   BOTTOM HOLE TEMPERATURE
 TCS .HRS               5:   TIME CURCULATED STOPPED
 MRT .F                74:   MAXIMUM RECORDED TEMPERATURE
 LUN .               2958:   LOGGING UNIT NUMBER
 LUL .               CASP:   LOGGING UNIT LOCATION
 ENGI.             MILLER:   RECORDING ENGINEER
 WITN.           MCGINLEY:   WITNESSED BY
 CLNT.            A2DTECH:   CLIENT CODE
 ORIG.        2" 5" PRINT:   ORIGIN OF DATA
 UWI .       490251061100:   UNIQUE WELL ID
 DICO. A2D Technologies, Inc.:   DIGITIZING COMPANY
~OTHER INFORMATION
~A   DEPT      SPR        ILD         SN         GRD      CALD       DPOR       RHOB       CORR   
# ...
  761.0000   -62.5892     5.7843     7.2094    86.6210     8.0851     0.1346     2.4351     0.0233
  761.5000   -62.5499     5.6928     7.0873    87.2289     8.0861     0.1309     2.4399     0.0354
  762.0000   -62.5495     5.5317     6.9915    89.4147     8.0130     0.1294     2.4495     0.0632
  762.5000   -62.5868     5.3275     6.8008    98.2545     7.8971     0.1279     2.4564     0.0935
  763.0000   -62.7675     5.1310     6.6035   100.6713     7.7980     0.1332     2.4577     0.1081
  763.5000   -62.9432     4.9246     6.3824   102.7141     7.6378     0.1491     2.4566     0.1213
  764.0000   -62.8730     4.7245     5.9662   106.3849     7.4832     0.1726     2.4499     0.1087
  764.5000   -62.7846     4.5330     5.5772   108.6433     7.3363     0.1895     2.3932     0.0820
  765.0000   -62.6971     4.1433     5.2136   103.1551     7.2641     0.2172     2.3700     0.0573
  765.5000   -62.6116     3.7391     4.8737    98.4159     7.1886     0.2464     2.3398     0.0473
  766.0000   -62.5605     3.3237     4.5844    96.0919     7.1122     0.2646     2.2717     0.0271
  766.5000   -62.6007     2.9390     4.2894    91.6507     7.0793     0.2722     2.2404     0.0067
  767.0000   -62.6391     2.6215     3.7771    86.8504     7.0653     0.2800     2.2165    -0.0019
  767.5000   -62.6784     2.3030     3.3271    85.3138     7.0520     0.2766     2.2056    -0.0022
  768.0000   -62.7179     2.1355     2.9308    82.1591     7.0386     0.2657     2.1991     0.0057
  768.5000   -62.7171     1.9954     2.6179    78.3539     7.0255     0.2328     2.2242     0.0164
  769.0000   -62.3993     2.0051     2.4172    74.4622     6.9712     0.2028     2.2816     0.0272
  769.5000   -62.0756     2.0158     2.2288    73.9107     6.8993     0.1816     2.3424     0.0356
  770.0000   -61.9197     2.0265     2.2084    81.5840     6.8900     0.1622     2.3634     0.0274
  770.5000   -61.8679     2.0935     2.2533    85.7022     7.0570     0.1503     2.3854     0.0192
  771.0000   -61.8188     2.2385     2.4433    87.9930     7.2122     0.1419     2.4065     0.0170
  771.5000   -61.7690     2.4443     2.6494    90.3130     7.2796     0.1384     2.4297     0.0160
  772.0000   -61.7724     2.7300     3.1077    91.5416     7.3324     0.1368     2.4409     0.0150
  772.5000   -61.8171     3.0989     3.7453    92.7666     7.2748     0.1358     2.4427     0.0162
  773.0000   -61.8628     3.5300     4.2376    91.4583     7.2725     0.1348     2.4441     0.0227
  773.5000   -61.9085     4.0211     4.7257    88.5815     7.4061     0.1346     2.4455     0.0313
  774.0000   -61.9388     4.3939     5.2075    88.7639     7.4659     0.1346     2.4471     0.0461
  774.5000   -61.8510     4.5750     5.1919    89.7834     7.5158     0.1317     2.4519     0.0639
  775.0000   -61.7636     4.5766     5.1304    90.7425     7.6052     0.1419     2.4568     0.0849
  775.5000   -61.6767     4.5776     5.1102    93.5135     7.5319     0.1568     2.4527     0.1125
  776.0000   -61.5909     4.4123     5.2335    98.2398     7.3917     0.1683     2.4299     0.1019
  776.5000   -61.5954     4.1689     5.4024   104.7990     7.0610     0.1620     2.4078     0.0836
  777.0000   -61.6949     3.9407     5.5510   104.5064     6.9920     0.1604     2.3955     0.0879
  777.5000   -61.7945     3.7638     5.5561    97.1578     6.9299     0.1653     2.3959     0.0873
  778.0000   -61.8930     3.6564     5.0175    91.5314     6.8235     0.1622     2.3970     0.0651
  778.5000   -61.8967     3.5998     4.6605    85.9470     6.7495     0.1581     2.3975     0.0433
  779.0000   -61.6569     3.6151     4.4112    85.7275     6.7502     0.1782     2.3937     0.0435
  779.5000   -61.4250     3.6263     4.3651    87.8870     6.7495     0.1799     2.3837     0.0329
  780.0000   -61.1883     3.6332     4.4553    92.5093     6.8158     0.1810     2.3739     0.0162
  780.5000   -61.1366     3.7711     4.7299    96.8374     6.9332     0.1711     2.3667     0.0106
  781.0000   -61.1269     4.0146     4.9536    97.3093     7.0599     0.1537     2.3696     0.0163
  781.5000   -61.1179     4.2497     5.1469    96.0153     7.1854     0.1160     2.3851     0.0228
  782.0000   -61.1084     4.5446     5.3477    94.7414     7.3318     0.0983     2.4594     0.0386
  782.5000   -61.0988     4.8330     5.6459    93.8540     7.5303     0.1049     2.5111     0.0724
  783.0000   -61.0892     5.1396     5.9939    93.9608     7.7049     0.1115     2.4972     0.0563
  783.5000   -61.0797     5.4509     6.3639    94.5794     7.7834     0.1181     2.4808     0.0358
  784.0000   -61.0701     5.5761     6.7537    94.5353     7.8486     0.1228     2.4644     0.0172
  784.5000   -61.0606     5.7080     7.1254    92.9483     7.6993     0.1228     2.4575     0.0176
  785.0000   -61.0510     5.7470     7.1679    93.1734     7.5528     0.1116     2.4693     0.0404
  785.5000   -61.0414     5.7895     7.2197    93.8484     7.4064     0.1041     2.4843     0.0564
  786.0000   -61.0319     5.8142     7.2710    94.0358     7.2713     0.1022     2.4992     0.0724
  786.5000   -61.0223     5.7824     7.3226    95.0383     7.1427     0.1197     2.5045     0.0854
  787.0000   -61.0127     5.7114     7.3891    95.5858     7.0617     0.1348     2.4751     0.0839
  787.5000   -61.0032     5.5497     7.2625    93.7220     6.9805     0.1498     2.4563     0.0581
  788.0000   -60.9936     5.4509     7.0907    92.1254     6.9125     0.1621     2.4420     0.0396
  788.5000   -60.9841     5.4348     6.9278    91.3591     6.8903     0.1632     2.4164     0.0210
  789.0000   -60.9745     5.4186     6.8897    91.6303     6.9255     0.1618     2.3966     0.0037
  789.5000   -60.9649     5.4012     6.8423    94.2040     6.9831     0.1600     2.3976     0.0034
  790.0000   -60.9553     5.3080     6.6153    96.6093     7.0400     0.1568     2.3992     0.0026
  790.5000   -60.9452     5.2053     6.6153    98.2952     7.1578     0.1474     2.4031     0.0026
  791.0000   -60.9604     5.1087     6.5417    99.9064     7.3008     0.1434     2.4177     0.0041
  791.5000   -60.9817     5.0168     6.3616   101.8746     7.4432     0.1468     2.4310     0.0044
  792.0000   -61.0030     4.8107     6.2018   104.4039     7.5393     0.1543     2.4316     0.0032
  792.5000   -61.0243     4.6227     5.9255   106.8003     7.6625     0.1477     2.4179     0.0020
  793.0000   -61.0456     4.5750     5.6825   109.1704     7.7376     0.1377     2.4161     0.0019
  793.5000   -61.0668     4.5750     5.4496   111.5703     7.7751     0.1278     2.4277     0.0022
  794.0000   -61.0881     4.5750     5.2261   112.3713     7.8411     0.1177     2.4471     0.0143
  794.5000   -61.1094     4.6217     5.1102   110.9032     7.9506     0.1076     2.4731     0.0195
  795.0000   -61.1306     4.6773     5.2425   109.7144     8.0436     0.1038     2.4869     0.0229
  795.5000   -61.1519     4.7275     5.5751   108.8052     8.1204     0.0992     2.4980     0.0272
  796.0000   -61.1732     4.9015     5.9289   107.5102     8.1975     0.0952     2.5092     0.0384
  796.5000   -61.1945     5.1829     6.3050   106.1829     8.1731     0.0985     2.5124     0.0567
  797.0000   -61.2157     5.4804     6.6780   104.7382     8.1416     0.1040     2.5126     0.0611
  797.5000   -61.2370     5.7609     6.8615   103.7583     8.1101     0.1097     2.5061     0.0645
  798.0000   -61.2583     5.7492     7.0385   101.4816     8.0528     0.1124     2.4978     0.0608
  798.5000   -61.2795     5.7386     7.1953    99.0866     7.8786     0.1155     2.4894     0.0473
  799.0000   -61.3008     5.7281     7.2385    97.4561     7.7071     0.1209     2.4837     0.0465
  799.5000   -61.3225     5.7175     7.2819    96.1135     7.5416     0.1243     2.4795     0.0457
  800.0000   -61.3441     5.7085     7.3214    94.7677     7.3760     0.1265     2.4694     0.0398
  800.5000   -61.3035     5.7835     7.5174    93.3848     7.2138     0.1357     2.4651     0.0366
  801.0000   -61.2564     5.8541     7.7378    92.6479     7.0247     0.1435     2.4628     0.0353
