~VERSION INFORMATION
 VERS.                2.0:   CWLS LOG ASCII STANDARD - VERSION 2.0
 WRAP.                 NO:   ONE LINE PER DEPTH STEP
~WELL INFORMATION
#MNEM.UNIT      DATA TYPE    INFORMATION
#----------   ------------   ------------------------------
 STRT.F           32.0000:   START DEPTH
 STOP.F         1082.0000:   STOP DEPTH
 STEP.F            0.5000:   STEP LENGTH
 NULL.          -999.2500:   NO VALUE
 COMP. FENIX & SCISSON INC:   COMPANY
 WELL. NAVAL PETROLEUM RESERVE 3 SX #55-14:   WELL
 FLD .        TEAPOT DOME:   FIELD
 LOC .      S14 T38N R78W:   LOCATION
 CNTY.            NATRONA:   COUNTY
 STAT.            WYOMING:   STATE
 CTRY. UNITED STATES OF AMERICA:   COUNTRY
 SRVC.            Unknown:   SERVICE COMPANY
 DATE.        22-APR-1978:   LOGDATE
 API .       490251061100:   API NUMBER
~CURVE INFORMATION
#MNEM.UNIT       API CODE    CURVE DESCRIPTION
#----------   ------------   ------------------------------
 DEPT.F                  :   
 SPR .MV     05 010 01 00:   SPONTANEOUS POTENTIAL FROM RES.
 ILD .OHMM   05 120 46 00:   INDUCTION LOG DEEP
 SN  .OHMM   05 040 16 00:   SHORT NORMAL 16"
 GRD .GAPI   45 310 01 00:   GAMMA RAY FROM DENSITY LOG
 CALD.IN     45 280 60 00:   CALIPER
 DPOR.DEC    45 890 12 00:   DENSITY POROSITY SANDSTONE
 RHOB.G/C3   45 350 01 00:   BULK DENSITY
 CORR.G/C3   45 356 01 00:   DENSITY CORRECTION
~PARAMETER INFORMATION
#MNEM.UNIT          VALUE    DESCRIPTION
#----------   ------------   ------------------------------
 PD  .                 GL:   PERMANENT DATUM
 EPD .F              5288:   ELEVATION PERMANENT DATUM
 LMF .                 KB:   LOG MEASURED FROM
 DAPD.F                 4:   FEET ABOVE PERMANENT DATUM
 DMF .                 KB:   DRILLING MEASURED FROM
 EKB .F              5292:   KELLING BUSHING
 EGL .F              5288:   GROUND LEVEL
 DATE.            4-22-78:   RUN DATE
 RUN .                  1:   RUN NUMBER
 DD  .F              1080:   DEPTH DRILLER
 DL  .F              1080:   DEPTH LOGGER
 BLI .F              1074:   BOTTOM LOG INTERVAL
 TLI .F                50:   TOP LOG INTERVAL
 CS  .IN            8.625:   CASING SIZE
 CBD .F                40:   CASING BOTTOM DRILLER
 CBL .F                40:   CASING BOTTOM LOGGER
 BS  .IN            7.875:   BIT SIZE
 BSD .F              1080:   BIT SIZE AT DEPTH
 DFT .                KCL:   DRILLING FLUID TYPE
 DFD .                8.6:   DRILLING FLUID DENSITY
 DFV .                 33:   DRILLING FLUID VISCOSITY
 DFPH.               10.2:   DRILLING FLUID PH
 DFL .                8.6:   DRILLING FLUID LOSS
 MSS .            MUD PIT:   MUD SAMPLE SOURCE
 RMS .OHMM            .42:   RESISTIVITY MUD SAMPLE
 MST .F                60:   MUD SAMPLE TEMPERATURE
 RMF .OHMM            .38:   RESISTIVITY MUD FILTRATE SAMPLE
 MFST.F                62:   MUD FILTRATE SAMPLE TEMPERATURE
 RMC .OHMM             .7:   RESISTIVITY MUD CAKE
 MCST.F                62:   MUD CAKE SAMPLE TEMPERATURE
 MFSS.           MEASURED:   MUD FILTRATE SAMPLE SOURCE
 MCSS.           MEASURED:   MUD CAKE SAMPLE SOURCE
 RMB .OHMM            .34:   RESISTIVITY MUD AT BHT
 BHT .F                74:   BOTTOM HOLE TEMPERATURE
 TCS .HRS               5:   TIME CURCULATED STOPPED
 MRT .F                74:   MAXIMUM RECORDED TEMPERATURE
 LUN .               2958:   LOGGING UNIT NUMBER
 LUL .               CASP:   LOGGING UNIT LOCATION
 ENGI.             MILLER:   RECORDING ENGINEER
 WITN.           MCGINLEY:   WITNESSED BY
 CLNT.            A2DTECH:   CLIENT CODE
 ORIG.        2" 5" PRINT:   ORIGIN OF DATA
 UWI .       490251061100:   UNIQUE WELL ID
 DICO. A2D Technologies, Inc.:   DIGITIZING COMPANY
~OTHER INFORMATION
~A   DEPT      SPR        ILD         SN         GRD      CALD       DPOR       RHOB       CORR   
# ...
  639.5000   -61.9093     6.8073     8.0281    93.8503     7.9326     0.1157     2.4855     0.0030
  640.0000   -61.8901     6.7457     7.9744    94.8368     7.8677     0.1187     2.4856     0.0037
  640.5000   -61.8710     6.6846     7.9241    96.1478     7.8269     0.1179     2.4825     0.0034
  641.0000   -61.8518     6.6241     7.8818    95.3724     7.7919     0.1172     2.4791     0.0024
  641.5000   -61.8327     6.5642     7.8186    92.9675     7.7552     0.1239     2.4773     0.0015
  642.0000   -61.8135     6.5048     7.7533    90.9389     7.6545     0.1305     2.4750     0.0005
  642.5000   -61.7944     6.4944     7.6887    90.1606     7.4680     0.1315     2.4665    -0.0005
  643.0000   -61.7752     6.4943     7.6668    87.8683     7.4631     0.1297     2.4581    -0.0017
  643.5000   -61.7561     6.4943     7.6668    87.0677     7.5721     0.1276     2.4533    -0.0002
  644.0000   -61.7369     6.4945     7.6668    89.5585     7.8556     0.1255     2.4532     0.0024
  644.5000   -61.7178     6.4940     7.6668    91.1370     7.9267     0.1229     2.4544     0.0059
  645.0000   -61.6987     6.5958     7.6668    91.0233     7.9535     0.1189     2.4587     0.0121
  645.5000   -61.6795     6.6841     7.6659    91.0871     7.9797     0.1140     2.4655     0.0236
  646.0000   -61.6604     6.7735     7.6636    91.3588     7.9897     0.1016     2.4841     0.0349
  646.5000   -61.6412     6.8642     7.8164    91.5520     7.9929     0.0879     2.5028     0.0460
  647.0000   -61.6220     6.9387     8.0285    91.2061     7.9958     0.0745     2.5214     0.0571
  647.5000   -61.6029     6.9755     7.9834    90.3169     7.9988     0.0752     2.5404     0.0681
  648.0000   -61.5837     7.0124     7.8818    88.4140     8.0019     0.0780     2.5566     0.0789
  648.5000   -61.5642     7.0494     7.9710    87.2772     8.0049     0.0873     2.4841     0.0700
  649.0000   -61.5477     7.0867     8.1238    88.2202     8.0075     0.0999     2.4968     0.0403
  649.5000   -61.5807     7.1217     8.3301    92.7927     8.0030     0.1036     2.5019     0.0156
  650.0000   -61.6146     7.1304     8.3243    96.9036     7.9984     0.1069     2.5051     0.0191
  650.5000   -61.6482     7.1405     8.3158    96.6327     7.9940     0.1069     2.5017     0.0238
  651.0000   -61.6818     7.1505     8.3074    91.3958     7.9910     0.1065     2.4978     0.0279
  651.5000   -61.7155     7.1606     8.2989    88.6820     7.9214     0.1095     2.4933     0.0282
  652.0000   -61.7465     7.1707     8.2904    90.0013     7.8348     0.1124     2.4895     0.0288
  652.5000   -61.7472     7.1808     8.2820    91.3055     7.8085     0.1127     2.4859     0.0241
  653.0000   -61.7470     7.1872     8.2736    92.6112     7.7967     0.1115     2.4847     0.0181
  653.5000   -61.7470     7.1575     8.2651    93.9138     7.7844     0.1103     2.4837     0.0147
  654.0000   -61.7470     7.1338     8.2567    95.2256     7.7300     0.1119     2.4827     0.0122
  654.5000   -61.7470     7.1220     8.2483    96.5189     7.7146     0.1159     2.4818     0.0106
  655.0000   -61.7470     7.2537     8.2399    96.1456     7.7051     0.1189     2.4810     0.0091
  655.5000   -61.7470     7.2213     8.2315    95.0492     7.6962     0.1212     2.4778     0.0074
  656.0000   -61.7470     7.1753     8.2231    95.1056     7.6871     0.1212     2.4729     0.0058
  656.5000   -61.7470     7.1217     8.2147    95.4229     7.6660     0.1193     2.4681     0.0046
  657.0000   -61.7470     7.1500     8.2063    94.9727     7.5730     0.1188     2.4689     0.0039
  657.5000   -61.7470     7.1876     8.1979    92.5538     7.4877     0.1192     2.4723     0.0032
  658.0000   -61.7470     7.2599     8.1895    91.8435     7.5044     0.1185     2.4749     0.0034
  658.5000   -61.7470     7.3406     8.1779    91.1612     7.5239     0.1152     2.4753     0.0040
  659.0000   -61.7470     7.4223     8.2169    88.7531     7.5003     0.1186     2.4764     0.0047
  659.5000   -61.7470     7.5049     8.3463    86.2944     7.4693     0.1208     2.4799     0.0053
  660.0000   -61.7470     7.5964     8.5596    84.8013     7.4573     0.1231     2.4748     0.0059
  660.5000   -61.7469     7.7388     8.7781    85.8211     7.5050     0.1182     2.4689     0.0052
  661.0000   -61.7576     7.8995     9.0038    86.2663     7.5243     0.1137     2.4646     0.0044
  661.5000   -61.7765     8.0635     9.1030    86.0423     7.5075     0.1283     2.4727     0.0026
  662.0000   -61.7955     8.2536     9.1709    83.9577     7.4868     0.1307     2.4762    -0.0008
  662.5000   -61.8145     8.2157     9.2832    82.8487     7.5159     0.1252     2.4490    -0.0040
  663.0000   -61.8335     8.1779     9.5084    82.7606     7.5441     0.1207     2.4540    -0.0058
  663.5000   -61.8525     8.3826     9.7436    82.7162     7.5436     0.1180     2.4658    -0.0063
  664.0000   -61.8715     8.5637     9.8312    82.3482     7.5432     0.1160     2.4738    -0.0022
  664.5000   -61.8905     8.7043     9.9214    79.0822     7.5617     0.1155     2.4785     0.0019
  665.0000   -61.9095     8.8446    10.0124    76.9598     7.5871     0.1159     2.4823     0.0060
  665.5000   -61.9286     8.9870    10.1096    75.7578     7.6123     0.1171     2.4822     0.0103
  666.0000   -61.9470     9.1322    10.4044    75.5069     7.6437     0.1189     2.4815     0.0120
  666.5000   -61.9395     9.2192    10.7853    76.1031     7.6592     0.1164     2.4808     0.0137
  667.0000   -61.9307     9.3325    10.7698    76.8066     7.6596     0.1148     2.4803     0.0139
  667.5000   -61.9221     9.3908    10.7488    76.6684     7.6597     0.1154     2.4799     0.0139
  668.0000   -61.9134     9.3053    10.7269    76.5457     7.6598     0.1209     2.4798     0.0115
  668.5000   -61.9048     9.2722    10.7055    76.5293     7.6591     0.1235     2.4765     0.0084
  669.0000   -61.8962     9.2382    10.6846    77.0388     7.6236     0.1223     2.4726     0.0063
  669.5000   -61.8876     9.2042    10.4465    77.4353     7.5266     0.1212     2.4696     0.0050
  670.0000   -61.8789     9.1703    10.2194    77.4093     7.4306     0.1216     2.4678     0.0038
  670.5000   -61.8703     9.1365    10.0924    78.3566     7.3309     0.1235     2.4694     0.0032
  671.0000   -61.8617     9.1029    10.0475    79.6526     7.3818     0.1255     2.4709     0.0025
  671.5000   -61.8530     9.0694    10.0010    80.9523     7.4536     0.1275     2.4674     0.0021
  672.0000   -61.8444     9.0360     9.9548    81.8904     7.5110     0.1259     2.4630     0.0027
  672.5000   -61.8358     9.0028     9.9087    80.7673     7.6188     0.1196     2.4629     0.0033
  673.0000   -61.8271     8.9677     9.8628    80.3667     7.6567     0.1194     2.4652     0.0039
  673.5000   -61.8185     8.9287     9.8025    80.5101     7.6783     0.1192     2.4699     0.0049
  674.0000   -61.8099     8.8770     9.7175    82.6385     7.6995     0.1188     2.4739     0.0117
  674.5000   -61.8013     8.8255     9.6330    84.7465     7.7214     0.1156     2.4743     0.0170
  675.0000   -61.7926     8.7744     9.5498    84.8920     7.5447     0.1113     2.4747     0.0162
  675.5000   -61.7840     8.7236     9.4769    84.5455     7.5799     0.1107     2.4824     0.0174
  676.0000   -61.7754     8.6730     9.4771    84.1330     7.7535     0.1058     2.4969     0.0204
  676.5000   -61.7667     8.6430     9.4777    82.5723     7.8739     0.1016     2.5116     0.0233
  677.0000   -61.7581     8.6430     9.4778    80.9357     7.8667     0.0985     2.5163     0.0223
  677.5000   -61.7486     8.6430     9.4778    80.2777     7.8363     0.0970     2.5117     0.0192
  678.0000   -61.7727     8.6198     9.4778    79.6563     7.8129     0.1157     2.5042     0.0161
  678.5000   -61.8085     8.4493     9.4788    79.3575     7.8653     0.1276     2.4914     0.0149
  679.0000   -61.8446     8.2822     9.4789    79.6457     7.9372     0.1335     2.4764     0.0148
  679.5000   -61.8808     8.2536     9.3626    82.2264     7.9499     0.1324     2.4616     0.0107
