~VERSION INFORMATION
 VERS.                2.0:   CWLS LOG ASCII STANDARD - VERSION 2.0
 WRAP.                 NO:   ONE LINE PER DEPTH STEP
~WELL INFORMATION
#MNEM.UNIT      DATA TYPE    INFORMATION
#----------   ------------   ------------------------------
 STRT.F           32.0000:   START DEPTH
 STOP.F         1082.0000:   STOP DEPTH
 STEP.F            0.5000:   STEP LENGTH
 NULL.          -999.2500:   NO VALUE
 COMP. FENIX & SCISSON INC:   COMPANY
 WELL. NAVAL PETROLEUM RESERVE 3 SX #55-14:   WELL
 FLD .        TEAPOT DOME:   FIELD
 LOC .      S14 T38N R78W:   LOCATION
 CNTY.            NATRONA:   COUNTY
 STAT.            WYOMING:   STATE
 CTRY. UNITED STATES OF AMERICA:   COUNTRY
 SRVC.            Unknown:   SERVICE COMPANY
 DATE.        22-APR-1978:   LOGDATE
 API .       490251061100:   API NUMBER
~CURVE INFORMATION
#MNEM.UNIT       API CODE    CURVE DESCRIPTION
#----------   ------------   ------------------------------
 DEPT.F                  :   
 SPR .MV     05 010 01 00:   SPONTANEOUS POTENTIAL FROM RES.
 ILD .OHMM   05 120 46 00:   INDUCTION LOG DEEP
 SN  .OHMM   05 040 16 00:   SHORT NORMAL 16"
 GRD .GAPI   45 310 01 00:   GAMMA RAY FROM DENSITY LOG
 CALD.IN     45 280 60 00:   CALIPER
 DPOR.DEC    45 890 12 00:   DENSITY POROSITY SANDSTONE
 RHOB.G/C3   45 350 01 00:   BULK DENSITY
 CORR.G/C3   45 356 01 00:   DENSITY CORRECTION
~PARAMETER INFORMATION
#MNEM.UNIT          VALUE    DESCRIPTION
#----------   ------------   ------------------------------
 PD  .                 GL:   PERMANENT DATUM
 EPD .F              5288:   ELEVATION PERMANENT DATUM
 LMF .                 KB:   LOG MEASURED FROM
 DAPD.F                 4:   FEET ABOVE PERMANENT DATUM
 DMF .                 KB:   DRILLING MEASURED FROM
 EKB .F              5292:   KELLING BUSHING
 EGL .F              5288:   GROUND LEVEL
 DATE.            4-22-78:   RUN DATE
 RUN .                  1:   RUN NUMBER
 DD  .F              1080:   DEPTH DRILLER
 DL  .F              1080:   DEPTH LOGGER
 BLI .F              1074:   BOTTOM LOG INTERVAL
 TLI .F                50:   TOP LOG INTERVAL
 CS  .IN            8.625:   CASING SIZE
 CBD .F                40:   CASING BOTTOM DRILLER
 CBL .F                40:   CASING BOTTOM LOGGER
 BS  .IN            7.875:   BIT SIZE
 BSD .F              1080:   BIT SIZE AT DEPTH
 DFT .                KCL:   DRILLING FLUID TYPE
 DFD .                8.6:   DRILLING FLUID DENSITY
 DFV .                 33:   DRILLING FLUID VISCOSITY
 DFPH.               10.2:   DRILLING FLUID PH
 DFL .                8.6:   DRILLING FLUID LOSS
 MSS .            MUD PIT:   MUD SAMPLE SOURCE
 RMS .OHMM            .42:   RESISTIVITY MUD SAMPLE
 MST .F                60:   MUD SAMPLE TEMPERATURE
 RMF .OHMM            .38:   RESISTIVITY MUD FILTRATE SAMPLE
 MFST.F                62:   MUD FILTRATE SAMPLE TEMPERATURE
 RMC .OHMM             .7:   RESISTIVITY MUD CAKE
 MCST.F                62:   MUD CAKE SAMPLE TEMPERATURE
 MFSS.           MEASURED:   MUD FILTRATE SAMPLE SOURCE
 MCSS.           MEASURED:   MUD CAKE SAMPLE SOURCE
 RMB .OHMM            .34:   RESISTIVITY MUD AT BHT
 BHT .F                74:   BOTTOM HOLE TEMPERATURE
 TCS .HRS               5:   TIME CURCULATED STOPPED
 MRT .F                74:   MAXIMUM RECORDED TEMPERATURE
 LUN .               2958:   LOGGING UNIT NUMBER
 LUL .               CASP:   LOGGING UNIT LOCATION
 ENGI.             MILLER:   RECORDING ENGINEER
 WITN.           MCGINLEY:   WITNESSED BY
 CLNT.            A2DTECH:   CLIENT CODE
 ORIG.        2" 5" PRINT:   ORIGIN OF DATA
 UWI .       490251061100:   UNIQUE WELL ID
 DICO. A2D Technologies, Inc.:   DIGITIZING COMPANY
~OTHER INFORMATION
~A   DEPT      SPR        ILD         SN         GRD      CALD       DPOR       RHOB       CORR   
# ...
  518.0000   -61.6025     6.2396     7.2550    80.7707     7.9868     0.1254     2.4619     0.0015
  518.5000   -61.5748     6.2970     7.2620    80.6530     7.9665     0.1251     2.4619     0.0010
  519.0000   -61.5474     6.3550     7.2689    83.1990     7.9465     0.1235     2.4619     0.0006
  519.5000   -61.5544     6.4348     7.2758    86.4186     7.9266     0.1210     2.4618     0.0001
  520.0000   -61.5636     6.4267     7.2828    86.7122     7.9107     0.1219     2.4667     0.0003
  520.5000   -61.5727     6.4139     7.2897    86.8731     7.9128     0.1260     2.4727     0.0008
  521.0000   -61.5816     6.4012     7.2966    87.0450     7.9170     0.1275     2.4684     0.0008
  521.5000   -61.5906     6.3885     7.3037    87.5926     7.9211     0.1267     2.4630     0.0004
  522.0000   -61.5996     6.3760     7.3108    87.7416     7.9252     0.1287     2.4575     0.0000
  522.5000   -61.6086     6.3514     7.3175    85.2150     7.9292     0.1323     2.4533    -0.0014
  523.0000   -61.6176     6.3212     7.3214    85.3891     7.9421     0.1358     2.4499    -0.0029
  523.5000   -61.6266     6.2912     7.1342    87.5954     7.9574     0.1386     2.4466    -0.0043
  524.0000   -61.6355     6.2613     7.0079    88.0929     7.9727     0.1363     2.4438    -0.0058
  524.5000   -61.6445     6.2315     6.9274    89.7454     7.9880     0.1343     2.4432    -0.0069
  525.0000   -61.6535     6.2018     6.9498    90.6357     8.0040     0.1362     2.4441    -0.0066
  525.5000   -61.6625     6.2230     6.9664    87.6080     8.0055     0.1391     2.4449    -0.0064
  526.0000   -61.6715     6.2442     6.9830    86.7405     7.9874     0.1332     2.4457    -0.0062
  526.5000   -61.6805     6.2884     6.9915    87.9241     7.9697     0.1246     2.4478    -0.0059
  527.0000   -61.6894     6.3891     6.9915    88.4849     7.9727     0.1189     2.4586    -0.0030
  527.5000   -61.6984     6.5149     7.0957    88.5655     7.9823     0.1186     2.4692     0.0001
  528.0000   -61.7074     6.6627     7.2381    88.6102     7.9919     0.1192     2.4787     0.0031
  528.5000   -61.7164     6.8138     7.3650    89.5684     8.0011     0.1198     2.4768     0.0037
  529.0000   -61.7253     6.9274     7.4690    90.6332     7.9984     0.1223     2.4745     0.0033
  529.5000   -61.7344     6.9274     7.5744    91.6942     7.9668     0.1254     2.4723     0.0029
  530.0000   -61.7431     6.9915     7.6786    90.6875     7.9357     0.1279     2.4664     0.0025
  530.5000   -61.7754     6.9915     7.7594    88.4989     7.9130     0.1260     2.4597     0.0021
  531.0000   -61.8226     6.9397     7.8425    86.2926     7.9286     0.1226     2.4530     0.0026
  531.5000   -61.8702     6.7639     7.9257    84.0871     7.9434     0.1196     2.4544     0.0034
  532.0000   -61.9166     6.5684     7.9548    83.8063     7.9582     0.1211     2.4611     0.0043
  532.5000   -61.9240     6.4348     7.7681    84.3338     7.9730     0.1232     2.4677     0.0051
  533.0000   -61.8534     6.4348     7.5980    86.1277     7.9878     0.1232     2.4703     0.0059
  533.5000   -61.7845     6.3389     7.4316    87.9008     7.9886     0.1231     2.4662     0.0039
  534.0000   -61.7574     6.2506     7.2688    89.7133     7.9882     0.1257     2.4649     0.0020
  534.5000   -61.7802     6.2080     7.1098    89.9112     7.9746     0.1279     2.4637     0.0019
  535.0000   -61.8028     6.1658     7.0463    87.3373     7.9413     0.1257     2.4596     0.0018
  535.5000   -61.8255     6.1446     7.0310    85.9404     7.9082     0.1232     2.4581     0.0017
  536.0000   -61.8482     6.2102     7.0158    85.8128     7.9055     0.1223     2.4618     0.0016
  536.5000   -61.8708     6.2856     7.0006    85.0583     7.9332     0.1214     2.4653     0.0015
  537.0000   -61.8936     6.4348     6.9915    83.7604     7.9609     0.1212     2.4682     0.0014
  537.5000   -61.9161     6.4340     7.2292    83.2488     7.9877     0.1225     2.4711     0.0013
  538.0000   -61.9395     6.4358     7.3892    83.8606     7.9796     0.1240     2.4716     0.0012
  538.5000   -61.8872     6.5525     7.5172    85.4088     7.9650     0.1248     2.4699     0.0011
  539.0000   -61.7888     6.6277     7.5964    86.7868     7.9504     0.1248     2.4697     0.0012
  539.5000   -61.6896     6.6487     7.5825    87.7004     7.9359     0.1248     2.4667     0.0017
  540.0000   -61.5898     6.6706     7.5698    86.6489     7.9213     0.1244     2.4607     0.0022
  540.5000   -61.5622     6.6926     7.5572    85.5059     7.9067     0.1220     2.4611     0.0028
  541.0000   -61.5887     6.7147     7.5448    84.3616     7.8922     0.1196     2.4658     0.0033
  541.5000   -61.6162     6.7383     7.5324    83.2186     7.8774     0.1196     2.4703     0.0038
  542.0000   -61.6437     6.7475     7.5267    82.6218     7.8825     0.1203     2.4750     0.0038
  542.5000   -61.6712     6.7572     7.6894    82.6499     7.8979     0.1201     2.4744     0.0036
  543.0000   -61.6987     6.7669     7.8093    82.8465     7.9138     0.1189     2.4727     0.0034
  543.5000   -61.7260     6.7767     7.8218    83.3715     7.9297     0.1182     2.4718     0.0032
  544.0000   -61.7461     6.7867     7.8331    84.4643     7.9304     0.1187     2.4733     0.0029
  544.5000   -61.7389     6.8008     7.8447    85.5410     7.9244     0.1185     2.4779     0.0027
  545.0000   -61.7324     6.7574     7.8565    86.6260     7.9181     0.1180     2.4765     0.0025
  545.5000   -61.7258     6.6770     7.8681    87.6856     7.9119     0.1198     2.4743     0.0022
  546.0000   -61.7193     6.5979     7.8813    89.9365     7.9109     0.1208     2.4721     0.0020
  546.5000   -61.7127     6.5198     7.7815    91.3978     7.9140     0.1194     2.4718     0.0023
  547.0000   -61.7062     6.4426     7.6635    89.2218     7.9175     0.1180     2.4732     0.0027
  547.5000   -61.6996     6.4165     7.5469    88.3996     7.9209     0.1196     2.4753     0.0030
  548.0000   -61.6931     6.3961     7.4322    90.3553     7.9243     0.1228     2.4753     0.0028
  548.5000   -61.6866     6.3758     7.3192    87.4063     7.9278     0.1160     2.4723     0.0026
  549.0000   -61.6800     6.3555     7.2502    84.5714     7.9304     0.1137     2.4693     0.0024
  549.5000   -61.6735     6.3353     7.2303    84.5847     7.9304     0.1203     2.4706     0.0022
  550.0000   -61.6669     6.3192     7.2114    84.7366     7.9304     0.1215     2.4746     0.0021
  550.5000   -61.6604     6.3591     7.1921    86.6248     7.9304     0.1211     2.4733     0.0019
  551.0000   -61.6538     6.3977     7.1876    88.6766     7.9304     0.1207     2.4717     0.0017
  551.5000   -61.6473     6.4347     7.1870    89.2887     7.9303     0.1204     2.4700     0.0015
  552.0000   -61.6408     6.4460     7.1876    89.4169     7.9246     0.1204     2.4702     0.0013
  552.5000   -61.6342     6.4592     7.2737    89.4155     7.9128     0.1199     2.4708     0.0011
  553.0000   -61.6277     6.4725     7.3718    89.4605     7.9011     0.1187     2.4713     0.0013
  553.5000   -61.6211     6.4858     7.4716    90.0898     7.8893     0.1176     2.4719     0.0022
  554.0000   -61.6146     6.4991     7.5272    92.1999     7.8777     0.1217     2.4724     0.0030
  554.5000   -61.6080     6.5125     7.5152    92.8478     7.8858     0.1218     2.4726     0.0039
  555.0000   -61.6015     6.5259     7.5058    86.5783     7.9230     0.1188     2.4720     0.0047
  555.5000   -61.5949     6.5392     7.4965    82.9812     7.9498     0.1198     2.4713     0.0056
  556.0000   -61.5884     6.5516     7.4872    81.1964     7.9397     0.1207     2.4707     0.0055
  556.5000   -61.5819     6.6114     7.4781    83.7882     7.9304     0.1188     2.4701     0.0043
  557.0000   -61.5753     6.6781     7.4688    88.4547     7.9210     0.1197     2.4709     0.0032
  557.5000   -61.5688     6.7455     7.4580    93.5646     7.9115     0.1210     2.4730     0.0020
  558.0000   -61.5622     6.8137     7.5614    91.1382     7.9110     0.1216     2.4745     0.0009
