~VERSION INFORMATION
 VERS.                2.0:   CWLS LOG ASCII STANDARD - VERSION 2.0
 WRAP.                 NO:   ONE LINE PER DEPTH STEP
~WELL INFORMATION
#MNEM.UNIT      DATA TYPE    INFORMATION
#----------   ------------   ------------------------------
 STRT.F           32.0000:   START DEPTH
 STOP.F         1082.0000:   STOP DEPTH
 STEP.F            0.5000:   STEP LENGTH
 NULL.          -999.2500:   NO VALUE
 COMP. FENIX & SCISSON INC:   COMPANY
 WELL. NAVAL PETROLEUM RESERVE 3 SX #55-14:   WELL
 FLD .        TEAPOT DOME:   FIELD
 LOC .      S14 T38N R78W:   LOCATION
 CNTY.            NATRONA:   COUNTY
 STAT.            WYOMING:   STATE
 CTRY. UNITED STATES OF AMERICA:   COUNTRY
 SRVC.            Unknown:   SERVICE COMPANY
 DATE.        22-APR-1978:   LOGDATE
 API .       490251061100:   API NUMBER
~CURVE INFORMATION
#MNEM.UNIT       API CODE    CURVE DESCRIPTION
#----------   ------------   ------------------------------
 DEPT.F                  :   
 SPR .MV     05 010 01 00:   SPONTANEOUS POTENTIAL FROM RES.
 ILD .OHMM   05 120 46 00:   INDUCTION LOG DEEP
 SN  .OHMM   05 040 16 00:   SHORT NORMAL 16"
 GRD .GAPI   45 310 01 00:   GAMMA RAY FROM DENSITY LOG
 CALD.IN     45 280 60 00:   CALIPER
 DPOR.DEC    45 890 12 00:   DENSITY POROSITY SANDSTONE
 RHOB.G/C3   45 350 01 00:   BULK DENSITY
 CORR.G/C3   45 356 01 00:   DENSITY CORRECTION
~PARAMETER INFORMATION
#MNEM.UNIT          VALUE    DESCRIPTION
#----------   ------------   ------------------------------
 PD  .                 GL:   PERMANENT DATUM
 EPD .F              5288:   ELEVATION PERMANENT DATUM
 LMF .                 KB:   LOG MEASURED FROM
 DAPD.F                 4:   FEET ABOVE PERMANENT DATUM
 DMF .                 KB:   DRILLING MEASURED FROM
 EKB .F              5292:   KELLING BUSHING
 EGL .F              5288:   GROUND LEVEL
 DATE.            4-22-78:   RUN DATE
 RUN .                  1:   RUN NUMBER
 DD  .F              1080:   DEPTH DRILLER
 DL  .F              1080:   DEPTH LOGGER
 BLI .F              1074:   BOTTOM LOG INTERVAL
 TLI .F                50:   TOP LOG INTERVAL
 CS  .IN            8.625:   CASING SIZE
 CBD .F                40:   CASING BOTTOM DRILLER
 CBL .F                40:   CASING BOTTOM LOGGER
 BS  .IN            7.875:   BIT SIZE
 BSD .F              1080:   BIT SIZE AT DEPTH
 DFT .                KCL:   DRILLING FLUID TYPE
 DFD .                8.6:   DRILLING FLUID DENSITY
 DFV .                 33:   DRILLING FLUID VISCOSITY
 DFPH.               10.2:   DRILLING FLUID PH
 DFL .                8.6:   DRILLING FLUID LOSS
 MSS .            MUD PIT:   MUD SAMPLE SOURCE
 RMS .OHMM            .42:   RESISTIVITY MUD SAMPLE
 MST .F                60:   MUD SAMPLE TEMPERATURE
 RMF .OHMM            .38:   RESISTIVITY MUD FILTRATE SAMPLE
 MFST.F                62:   MUD FILTRATE SAMPLE TEMPERATURE
 RMC .OHMM             .7:   RESISTIVITY MUD CAKE
 MCST.F                62:   MUD CAKE SAMPLE TEMPERATURE
 MFSS.           MEASURED:   MUD FILTRATE SAMPLE SOURCE
 MCSS.           MEASURED:   MUD CAKE SAMPLE SOURCE
 RMB .OHMM            .34:   RESISTIVITY MUD AT BHT
 BHT .F                74:   BOTTOM HOLE TEMPERATURE
 TCS .HRS               5:   TIME CURCULATED STOPPED
 MRT .F                74:   MAXIMUM RECORDED TEMPERATURE
 LUN .               2958:   LOGGING UNIT NUMBER
 LUL .               CASP:   LOGGING UNIT LOCATION
 ENGI.             MILLER:   RECORDING ENGINEER
 WITN.           MCGINLEY:   WITNESSED BY
 CLNT.            A2DTECH:   CLIENT CODE
 ORIG.        2" 5" PRINT:   ORIGIN OF DATA
 UWI .       490251061100:   UNIQUE WELL ID
 DICO. A2D Technologies, Inc.:   DIGITIZING COMPANY
~OTHER INFORMATION
~A   DEPT      SPR        ILD         SN         GRD      CALD       DPOR       RHOB       CORR   
# ...
  842.0000   -60.7424     7.2123     8.3651    85.8342     7.6696     0.1446     2.4680     0.0056
  842.5000   -60.8143     6.7270     8.2588    87.9885     7.4930     0.1595     2.4606     0.0079
  843.0000   -60.8885     6.0914     8.0798    90.4233     7.3161     0.1667     2.4120     0.0109
  843.5000   -60.8742     5.4116     7.8630    91.1124     7.1404     0.1640     2.3956     0.0112
  844.0000   -60.5563     4.8150     7.5227    93.7098     7.0380     0.1454     2.3828     0.0141
  844.5000   -60.4319     4.5750     7.0220    99.6252     6.9615     0.1266     2.4028     0.0260
  845.0000   -60.2366     4.7021     6.3024   104.6844     6.9631     0.1192     2.4455     0.0380
  845.5000   -60.0354     4.7557     5.6044   101.1816     6.9632     0.1180     2.4763     0.0375
  846.0000   -59.7189     4.7749     4.8285    94.2504     6.9630     0.1208     2.5016     0.0064
  846.5000   -59.1697     4.7908     4.9610    90.6070     6.9875     0.1198     2.5009     0.0008
  847.0000   -58.5519     5.3183     6.0486    87.7036     7.0274     0.1186     2.4743     0.0001
  847.5000   -57.9241     6.3100     8.7716    84.8248     7.0680     0.1154     2.4718     0.0004
  848.0000   -57.7071     8.1572     9.3046    83.4099     7.1096     0.1119     2.4750     0.0084
  848.5000   -57.6516     8.5741     9.3775    87.5282     7.1120     0.1085     2.4840     0.0162
  849.0000   -57.5994     8.8854     9.4778    88.0764     6.9789     0.1073     2.4847     0.0233
  849.5000   -57.5504     8.6541     9.5220    89.2683     6.8041     0.1071     2.4859     0.0240
  850.0000   -57.2959     8.3301     9.5662    90.5496     6.8581     0.1063     2.4911     0.0200
  850.5000   -56.9532     8.4007     9.6105    89.0115     7.1757     0.1055     2.4959     0.0158
  851.0000   -56.6067     8.5012     9.6551    86.7623     7.4780     0.1052     2.4972     0.0138
  851.5000   -56.3133     8.5637     9.6998    85.7141     7.9507     0.1057     2.4986     0.0125
  852.0000   -56.2938     8.5637     9.7436    85.5511     8.1358     0.1062     2.4972     0.0053
  852.5000   -56.2682     8.5622     9.7436    85.5213     8.0279     0.1089     2.4921     0.0000
  853.0000   -56.2423     8.6623     9.8671    85.0116     7.9159     0.1104     2.4870     0.0006
  853.5000   -56.2162     8.8147    10.0583    84.5605     7.8048     0.1129     2.4838     0.0060
  854.0000   -56.1901     8.9686    10.2512    84.9306     7.6943     0.1163     2.4843     0.0202
  854.5000   -56.1641     9.1251    10.4488    86.5875     7.5837     0.1205     2.4836     0.0325
  855.0000   -56.1380     9.4603    10.6452    77.9887     7.4805     0.1273     2.4789     0.0394
  855.5000   -56.1119    10.0798    11.2157    69.7864     7.3866     0.1424     2.4736     0.0464
  856.0000   -56.0859    10.7399    11.8946    61.6412     7.3094     0.1582     2.4478     0.0495
  856.5000   -56.0598    11.4432    12.6146    53.5218     7.3108     0.1745     2.4200     0.0437
  857.0000   -56.0337    12.1708    13.1734    47.7523     7.3574     0.1814     2.3924     0.0341
  857.5000   -56.0076    12.8995    13.5710    46.1059     7.4087     0.1824     2.3770     0.0245
  858.0000   -55.9816    13.4671    13.9806    47.7568     7.4091     0.1622     2.3684     0.0199
  858.5000   -55.9555    13.9148    14.4025    53.2124     7.4665     0.1619     2.4164     0.0253
  859.0000   -55.9294    14.3774    14.8903    54.7128     7.5056     0.1683     2.4065     0.0351
  859.5000   -55.9034    14.6182    14.7520    55.2355     7.5031     0.1743     2.3940     0.0374
  860.0000   -55.8773    13.9095    14.5529    53.1715     7.6596     0.1673     2.3827     0.0358
  860.5000   -55.8512    13.7046    14.3511    50.2985     7.8192     0.1607     2.3882     0.0410
  861.0000   -55.8251    13.7046    14.2189    48.5101     7.8272     0.1543     2.3991     0.0469
  861.5000   -55.7991    13.7046    14.0843    50.9397     7.8379     0.1486     2.4066     0.0522
  862.0000   -55.7729    13.7046    13.9509    55.4270     7.8476     0.1428     2.4140     0.0447
  862.5000   -55.7463    13.3265    13.7997    59.3472     7.8443     0.1425     2.4353     0.0285
  863.0000   -55.7258    12.9813    13.4753    61.9303     7.8258     0.1442     2.4331     0.0237
  863.5000   -55.7859    12.6450    13.1586    64.1606     7.7946     0.1442     2.4312     0.0232
  864.0000   -55.8456    12.3174    12.8492    62.9812     7.7394     0.1484     2.4312     0.0244
  864.5000   -55.9048    11.9983    12.6133    61.2115     7.6895     0.1539     2.4303     0.0256
  865.0000   -55.9639    11.8250    12.4392    61.2506     7.6534     0.1607     2.4207     0.0210
  865.5000   -56.0231    11.8250    12.3485    61.3847     7.6173     0.1684     2.4088     0.0037
  866.0000   -56.0820    11.8250    12.2692    61.3019     7.6017     0.1721     2.3961    -0.0011
  866.5000   -56.1254    11.8252    12.3109    58.1444     7.6016     0.1702     2.3832    -0.0010
  867.0000   -56.1245    11.8249    12.3560    56.4473     7.6007     0.1709     2.3821    -0.0010
  867.5000   -56.1245    11.7832    12.3829    55.6597     7.6599     0.1723     2.3841    -0.0010
  868.0000   -56.1245    11.7130    12.1779    56.3047     7.7440     0.1727     2.3829    -0.0008
  868.5000   -56.1245    11.6435    12.0321    60.3227     7.8162     0.1675     2.3834     0.0003
  869.0000   -56.1245    11.5944    11.9354    63.5671     7.8143     0.1745     2.3854     0.0016
  869.5000   -56.1245    11.5654    11.9841    63.4316     7.8149     0.1794     2.3837     0.0039
  870.0000   -56.1245    11.5365    12.0222    63.3635     7.8299     0.1705     2.3770     0.0082
  870.5000   -56.1245    11.5077    12.0451    63.2911     7.8659     0.1632     2.3765     0.0120
  871.0000   -56.1245    11.4034    11.8860    63.1790     7.9281     0.1587     2.3861     0.0131
  871.5000   -56.1245    11.2923    11.7733    63.0951     7.9868     0.1577     2.3984     0.0140
  872.0000   -56.1245    11.2923    11.7042    63.7202     8.0065     0.1593     2.4055     0.0148
  872.5000   -56.1245    11.2923    11.6804    64.8878     7.9754     0.1608     2.4045     0.0141
  873.0000   -56.1245    11.2923    11.6562    66.6222     7.9442     0.1609     2.4025     0.0134
  873.5000   -56.1245    11.2923    11.6322    66.9857     7.8914     0.1605     2.4006     0.0128
  874.0000   -56.1245    11.2925    11.6081    66.5120     7.8216     0.1575     2.4010     0.0128
  874.5000   -56.1247    11.2909    11.5842    64.9878     7.7579     0.1549     2.4018     0.0168
  875.0000   -56.1266    11.2589    11.5602    63.0087     7.7343     0.1559     2.4030     0.0216
  875.5000   -56.0454    11.2272    11.5363    62.4419     7.7096     0.1582     2.4042     0.0261
  876.0000   -55.9469    11.1958    11.5125    62.2988     7.6865     0.1617     2.4035     0.0260
  876.5000   -55.8482    11.1645    11.4887    63.6596     7.5671     0.1636     2.4007     0.0215
  877.0000   -55.7457    11.1333    11.4650    65.3345     7.4255     0.1646     2.3979     0.0170
  877.5000   -55.7336    11.1022    11.4413    66.3282     7.2832     0.1655     2.3951     0.0135
  878.0000   -55.7481    11.0712    11.4177    66.5785     7.1555     0.1588     2.3922     0.0121
  878.5000   -55.7632    11.0403    11.3979    67.0681     7.0378     0.1549     2.3968     0.0135
  879.0000   -55.7780    11.0094    11.4456    68.7489     6.9261     0.1569     2.4059     0.0180
  879.5000   -55.7927    10.9842    11.4892    70.4526     6.8932     0.1646     2.4150     0.0225
  880.0000   -55.8075    11.0269    11.5330    66.6289     6.8660     0.1711     2.4056     0.0248
  880.5000   -55.8223    11.0631    11.5772    65.3532     6.8526     0.1683     2.3855     0.0240
  881.0000   -55.8371    11.0995    11.6182    64.0027     6.8634     0.1724     2.3833     0.0231
  881.5000   -55.8518    11.1359    11.6530    62.1879     6.8918     0.1754     2.3821     0.0216
  882.0000   -55.8666    11.1725    11.6878    61.0946     6.9192     0.1694     2.3790     0.0196
