~VERSION INFORMATION
 VERS.                2.0:   CWLS LOG ASCII STANDARD - VERSION 2.0
 WRAP.                 NO:   ONE LINE PER DEPTH STEP
~WELL INFORMATION
#MNEM.UNIT      DATA TYPE    INFORMATION
#----------   ------------   ------------------------------
 STRT.F           32.0000:   START DEPTH
 STOP.F         1082.0000:   STOP DEPTH
 STEP.F            0.5000:   STEP LENGTH
 NULL.          -999.2500:   NO VALUE
 COMP. FENIX & SCISSON INC:   COMPANY
 WELL. NAVAL PETROLEUM RESERVE 3 SX #55-14:   WELL
 FLD .        TEAPOT DOME:   FIELD
 LOC .      S14 T38N R78W:   LOCATION
 CNTY.            NATRONA:   COUNTY
 STAT.            WYOMING:   STATE
 CTRY. UNITED STATES OF AMERICA:   COUNTRY
 SRVC.            Unknown:   SERVICE COMPANY
 DATE.        22-APR-1978:   LOGDATE
 API .       490251061100:   API NUMBER
~CURVE INFORMATION
#MNEM.UNIT       API CODE    CURVE DESCRIPTION
#----------   ------------   ------------------------------
 DEPT.F                  :   
 SPR .MV     05 010 01 00:   SPONTANEOUS POTENTIAL FROM RES.
 ILD .OHMM   05 120 46 00:   INDUCTION LOG DEEP
 SN  .OHMM   05 040 16 00:   SHORT NORMAL 16"
 GRD .GAPI   45 310 01 00:   GAMMA RAY FROM DENSITY LOG
 CALD.IN     45 280 60 00:   CALIPER
 DPOR.DEC    45 890 12 00:   DENSITY POROSITY SANDSTONE
 RHOB.G/C3   45 350 01 00:   BULK DENSITY
 CORR.G/C3   45 356 01 00:   DENSITY CORRECTION
~PARAMETER INFORMATION
#MNEM.UNIT          VALUE    DESCRIPTION
#----------   ------------   ------------------------------
 PD  .                 GL:   PERMANENT DATUM
 EPD .F              5288:   ELEVATION PERMANENT DATUM
 LMF .                 KB:   LOG MEASURED FROM
 DAPD.F                 4:   FEET ABOVE PERMANENT DATUM
 DMF .                 KB:   DRILLING MEASURED FROM
 EKB .F              5292:   KELLING BUSHING
 EGL .F              5288:   GROUND LEVEL
 DATE.            4-22-78:   RUN DATE
 RUN .                  1:   RUN NUMBER
 DD  .F              1080:   DEPTH DRILLER
 DL  .F              1080:   DEPTH LOGGER
 BLI .F              1074:   BOTTOM LOG INTERVAL
 TLI .F                50:   TOP LOG INTERVAL
 CS  .IN            8.625:   CASING SIZE
 CBD .F                40:   CASING BOTTOM DRILLER
 CBL .F                40:   CASING BOTTOM LOGGER
 BS  .IN            7.875:   BIT SIZE
 BSD .F              1080:   BIT SIZE AT DEPTH
 DFT .                KCL:   DRILLING FLUID TYPE
 DFD .                8.6:   DRILLING FLUID DENSITY
 DFV .                 33:   DRILLING FLUID VISCOSITY
 DFPH.               10.2:   DRILLING FLUID PH
 DFL .                8.6:   DRILLING FLUID LOSS
 MSS .            MUD PIT:   MUD SAMPLE SOURCE
 RMS .OHMM            .42:   RESISTIVITY MUD SAMPLE
 MST .F                60:   MUD SAMPLE TEMPERATURE
 RMF .OHMM            .38:   RESISTIVITY MUD FILTRATE SAMPLE
 MFST.F                62:   MUD FILTRATE SAMPLE TEMPERATURE
 RMC .OHMM             .7:   RESISTIVITY MUD CAKE
 MCST.F                62:   MUD CAKE SAMPLE TEMPERATURE
 MFSS.           MEASURED:   MUD FILTRATE SAMPLE SOURCE
 MCSS.           MEASURED:   MUD CAKE SAMPLE SOURCE
 RMB .OHMM            .34:   RESISTIVITY MUD AT BHT
 BHT .F                74:   BOTTOM HOLE TEMPERATURE
 TCS .HRS               5:   TIME CURCULATED STOPPED
 MRT .F                74:   MAXIMUM RECORDED TEMPERATURE
 LUN .               2958:   LOGGING UNIT NUMBER
 LUL .               CASP:   LOGGING UNIT LOCATION
 ENGI.             MILLER:   RECORDING ENGINEER
 WITN.           MCGINLEY:   WITNESSED BY
 CLNT.            A2DTECH:   CLIENT CODE
 ORIG.        2" 5" PRINT:   ORIGIN OF DATA
 UWI .       490251061100:   UNIQUE WELL ID
 DICO. A2D Technologies, Inc.:   DIGITIZING COMPANY
~OTHER INFORMATION
~A   DEPT      SPR        ILD         SN         GRD      CALD       DPOR       RHOB       CORR   
# ...
  356.0000   -64.9109     4.4075     5.2053    77.0910     7.5983     0.2072     2.3526     0.0056
  356.5000   -64.9491     4.3556     5.1114    79.1292     7.6074     0.2163     2.3338     0.0011
  357.0000   -64.9691     4.1651     5.0362    84.4517     7.6242     0.2198     2.3182     0.0022
  357.5000   -65.0010     3.8427     4.9261    90.1594     7.6409     0.2165     2.3035     0.0029
  358.0000   -65.0322     3.5452     4.5592    91.9196     7.6576     0.2047     2.3002     0.0077
  358.5000   -65.0636     3.2708     4.2196    91.7627     7.6596     0.1864     2.3017     0.0140
  359.0000   -65.0950     3.0771     3.9053    85.6376     7.6596     0.1785     2.3439     0.0189
  359.5000   -65.1267     3.0388     3.6144    81.6654     7.6594     0.1770     2.3668     0.0171
  360.0000   -65.1572     3.0214     3.3452    79.2349     7.6604     0.1757     2.3778     0.0094
  360.5000   -65.1061     3.0267     3.1639    79.4336     7.6849     0.1743     2.3789     0.0025
  361.0000   -65.0451     3.0347     3.2614    80.0981     7.7101     0.1724     2.3797     0.0011
  361.5000   -64.9839     3.0427     3.3396    80.7467     7.7352     0.1678     2.3810     0.0014
  362.0000   -64.9385     3.0932     3.7109    81.5745     7.7603     0.1633     2.3856     0.0017
  362.5000   -64.9027     3.3688     4.0570    83.3500     7.7853     0.1619     2.3953     0.0019
  363.0000   -64.8670     3.6685     4.1508    85.1391     7.7852     0.1627     2.3992     0.0009
  363.5000   -64.8314     3.9128     4.2469    85.4238     7.7619     0.1635     2.3982    -0.0001
  364.0000   -64.7954     3.9125     4.3452    83.9958     7.7380     0.1644     2.3964    -0.0011
  364.5000   -64.7607     3.9114     4.4457    82.5711     7.7407     0.1640     2.3956    -0.0018
  365.0000   -64.7780     4.0808     4.5486    81.9015     7.7465     0.1665     2.3963    -0.0007
  365.5000   -64.7982     4.1386     4.6215    81.5401     7.7521     0.1690     2.3974     0.0003
  366.0000   -64.8181     4.1450     4.7176    81.2483     7.7567     0.1769     2.3987     0.0014
  366.5000   -64.8380     4.1523     4.8682    82.6945     7.7468     0.1858     2.3872     0.0011
  367.0000   -64.8579     4.1596     4.9355    84.3928     7.7356     0.1866     2.3705    -0.0008
  367.5000   -64.8778     4.1669     4.9564    84.8616     7.7246     0.1857     2.3643    -0.0026
  368.0000   -64.8977     4.1713     4.9688    83.7818     7.7190     0.1973     2.3584    -0.0045
  368.5000   -64.9176     4.0873     4.7732    77.6683     7.7229     0.2060     2.3506    -0.0057
  369.0000   -64.9377     4.0211     4.5840    76.1982     7.7268     0.2076     2.3394    -0.0038
  369.5000   -64.9593     3.8049     4.4033    76.0858     7.7307     0.2059     2.3291     0.0020
  370.0000   -64.8951     3.5925     4.2298    79.9934     7.7344     0.2007     2.3303     0.0078
  370.5000   -64.8209     3.3921     4.0631    84.2587     7.7330     0.2001     2.3392     0.0136
  371.0000   -64.7884     3.2116     3.9030    84.4278     7.7218     0.1981     2.3403     0.0071
  371.5000   -64.9977     3.0713     3.7351    83.1982     7.7106     0.2070     2.3372    -0.0031
  372.0000   -65.1207     3.0096     3.5662    77.3661     7.6996     0.2192     2.3256    -0.0020
  372.5000   -64.8837     2.9491     3.3907    72.2454     7.6950     0.2293     2.3075    -0.0003
  373.0000   -64.8029     2.9120     3.2515    72.4657     7.6905     0.2301     2.2888     0.0013
  373.5000   -64.8958     2.9390     3.2786    72.6312     7.6859     0.2329     2.2856     0.0030
  374.0000   -64.9258     2.8462     3.3125    74.1277     7.6814     0.2333     2.2857     0.0046
  374.5000   -64.8148     2.8099     3.2332    75.3178     7.6844     0.2361     2.2786     0.0058
  375.0000   -64.7064     2.7837     3.1119    75.4680     7.7104     0.2372     2.2727     0.0048
  375.5000   -64.5964     2.6151     2.9963    76.8056     7.7355     0.2241     2.2728     0.0041
  376.0000   -64.5537     2.4427     2.8845    78.6205     7.7600     0.2091     2.2822     0.0061
  376.5000   -64.5454     2.2819     2.7508    79.7370     7.7548     0.1892     2.3094     0.0087
  377.0000   -64.5378     2.2288     2.6150    79.6014     7.7001     0.1672     2.3589     0.0098
  377.5000   -64.5301     2.2288     2.4656    79.4877     7.6463     0.1674     2.3781     0.0047
  378.0000   -64.5224     2.2288     2.4845    79.1663     7.6447     0.1681     2.3900    -0.0008
  378.5000   -64.5147     2.3956     2.5126    75.1701     7.6865     0.1716     2.3914    -0.0002
  379.0000   -64.5070     2.5347     2.6181    71.9751     7.7293     0.1751     2.3925     0.0007
  379.5000   -64.4993     2.6692     2.8971    71.6272     7.7370     0.1777     2.3872    -0.0002
  380.0000   -64.4915     2.8574     3.2057    73.0819     7.7372     0.1790     2.3762    -0.0021
  380.5000   -64.4838     3.0980     3.5473    75.9641     7.7442     0.1802     2.3726    -0.0024
  381.0000   -64.4761     3.3588     3.9113    78.8425     7.7592     0.1873     2.3755    -0.0014
  381.5000   -64.4684     3.5668     3.9426    79.9116     7.7742     0.1950     2.3704    -0.0004
  382.0000   -64.4607     3.5102     3.9841    79.5742     7.7893     0.2047     2.3533     0.0006
  382.5000   -64.4530     3.4461     3.9482    79.4142     7.7949     0.2158     2.3364    -0.0004
  383.0000   -64.4452     3.3833     3.8975    79.9017     7.7950     0.2309     2.3191    -0.0024
  383.5000   -64.4375     3.3068     3.8420    82.9475     7.7950     0.2366     2.2976    -0.0045
  384.0000   -64.4298     3.2069     3.7520    83.2598     7.7950     0.2426     2.2811    -0.0060
  384.5000   -64.4221     3.1110     3.6636    83.5519     7.7950     0.2498     2.2679    -0.0040
  385.0000   -64.4144     3.0202     3.5510    84.7694     7.7950     0.2551     2.2528    -0.0012
  385.5000   -64.4067     2.7873     3.3568    86.6705     7.7950     0.2574     2.2452     0.0016
  386.0000   -64.3989     2.5810     3.1749    88.0543     7.7950     0.2582     2.2392     0.0068
  386.5000   -64.3912     2.3905     2.9937    89.0652     7.7950     0.2357     2.2354     0.0158
  387.0000   -64.3835     2.2139     2.7783    89.0446     7.7990     0.2110     2.2556     0.0191
  387.5000   -64.3758     2.0514     2.5673    89.0303     7.8109     0.1864     2.2845     0.0224
  388.0000   -64.3680     2.1138     2.3723    88.1854     7.8228     0.1617     2.3512     0.0236
  388.5000   -64.3606     2.1940     2.2703    84.9104     7.8332     0.1470     2.4174     0.0168
  389.0000   -64.3292     2.2715     2.3540    81.7108     7.8261     0.1406     2.4438     0.0101
  389.5000   -64.2846     2.4497     2.5341    78.8424     7.8190     0.1415     2.4374     0.0087
  390.0000   -64.2395     2.6863     3.0338    79.1557     7.8181     0.1421     2.4309     0.0081
  390.5000   -64.1945     2.9962     3.6915    81.5859     7.8290     0.1409     2.4302     0.0083
  391.0000   -64.1532     3.3439     4.4895    82.4464     7.8397     0.1383     2.4309     0.0088
  391.5000   -64.1376     4.3160     4.7117    82.4599     7.8505     0.1368     2.4361     0.0094
  392.0000   -64.1212     4.6165     4.9381    82.4599     7.8613     0.1372     2.4412     0.0098
  392.5000   -64.1048     4.6610     5.1766    81.2913     7.8718     0.1377     2.4430     0.0083
  393.0000   -64.0884     4.6599     5.2603    79.8273     7.8646     0.1367     2.4431     0.0066
  393.5000   -64.0720     4.6597     5.3227    79.5685     7.8562     0.1350     2.4422     0.0051
  394.0000   -64.0556     4.7997     5.4682    78.6442     7.8480     0.1343     2.4410     0.0039
  394.5000   -64.0392     4.9264     5.6887    77.5157     7.8398     0.1394     2.4399     0.0032
  395.0000   -64.0228     5.0565     5.9106    77.2737     7.8316     0.1394     2.4391     0.0026
  395.5000   -64.0063     5.1901     6.1143    78.9686     7.8234     0.1369     2.4391     0.0021
  396.0000   -63.9899     5.3271     6.3248    80.3621     7.8152     0.1339     2.4391     0.0034
