~VERSION INFORMATION
 VERS.                2.0:   CWLS LOG ASCII STANDARD - VERSION 2.0
 WRAP.                 NO:   ONE LINE PER DEPTH STEP
~WELL INFORMATION
#MNEM.UNIT      DATA TYPE    INFORMATION
#----------   ------------   ------------------------------
 STRT.F           32.0000:   START DEPTH
 STOP.F         1082.0000:   STOP DEPTH
 STEP.F            0.5000:   STEP LENGTH
 NULL.          -999.2500:   NO VALUE
 COMP. FENIX & SCISSON INC:   COMPANY
 WELL. NAVAL PETROLEUM RESERVE 3 SX #55-14:   WELL
 FLD .        TEAPOT DOME:   FIELD
 LOC .      S14 T38N R78W:   LOCATION
 CNTY.            NATRONA:   COUNTY
 STAT.            WYOMING:   STATE
 CTRY. UNITED STATES OF AMERICA:   COUNTRY
 SRVC.            Unknown:   SERVICE COMPANY
 DATE.        22-APR-1978:   LOGDATE
 API .       490251061100:   API NUMBER
~CURVE INFORMATION
#MNEM.UNIT       API CODE    CURVE DESCRIPTION
#----------   ------------   ------------------------------
 DEPT.F                  :   
 SPR .MV     05 010 01 00:   SPONTANEOUS POTENTIAL FROM RES.
 ILD .OHMM   05 120 46 00:   INDUCTION LOG DEEP
 SN  .OHMM   05 040 16 00:   SHORT NORMAL 16"
 GRD .GAPI   45 310 01 00:   GAMMA RAY FROM DENSITY LOG
 CALD.IN     45 280 60 00:   CALIPER
 DPOR.DEC    45 890 12 00:   DENSITY POROSITY SANDSTONE
 RHOB.G/C3   45 350 01 00:   BULK DENSITY
 CORR.G/C3   45 356 01 00:   DENSITY CORRECTION
~PARAMETER INFORMATION
#MNEM.UNIT          VALUE    DESCRIPTION
#----------   ------------   ------------------------------
 PD  .                 GL:   PERMANENT DATUM
 EPD .F              5288:   ELEVATION PERMANENT DATUM
 LMF .                 KB:   LOG MEASURED FROM
 DAPD.F                 4:   FEET ABOVE PERMANENT DATUM
 DMF .                 KB:   DRILLING MEASURED FROM
 EKB .F              5292:   KELLING BUSHING
 EGL .F              5288:   GROUND LEVEL
 DATE.            4-22-78:   RUN DATE
 RUN .                  1:   RUN NUMBER
 DD  .F              1080:   DEPTH DRILLER
 DL  .F              1080:   DEPTH LOGGER
 BLI .F              1074:   BOTTOM LOG INTERVAL
 TLI .F                50:   TOP LOG INTERVAL
 CS  .IN            8.625:   CASING SIZE
 CBD .F                40:   CASING BOTTOM DRILLER
 CBL .F                40:   CASING BOTTOM LOGGER
 BS  .IN            7.875:   BIT SIZE
 BSD .F              1080:   BIT SIZE AT DEPTH
 DFT .                KCL:   DRILLING FLUID TYPE
 DFD .                8.6:   DRILLING FLUID DENSITY
 DFV .                 33:   DRILLING FLUID VISCOSITY
 DFPH.               10.2:   DRILLING FLUID PH
 DFL .                8.6:   DRILLING FLUID LOSS
 MSS .            MUD PIT:   MUD SAMPLE SOURCE
 RMS .OHMM            .42:   RESISTIVITY MUD SAMPLE
 MST .F                60:   MUD SAMPLE TEMPERATURE
 RMF .OHMM            .38:   RESISTIVITY MUD FILTRATE SAMPLE
 MFST.F                62:   MUD FILTRATE SAMPLE TEMPERATURE
 RMC .OHMM             .7:   RESISTIVITY MUD CAKE
 MCST.F                62:   MUD CAKE SAMPLE TEMPERATURE
 MFSS.           MEASURED:   MUD FILTRATE SAMPLE SOURCE
 MCSS.           MEASURED:   MUD CAKE SAMPLE SOURCE
 RMB .OHMM            .34:   RESISTIVITY MUD AT BHT
 BHT .F                74:   BOTTOM HOLE TEMPERATURE
 TCS .HRS               5:   TIME CURCULATED STOPPED
 MRT .F                74:   MAXIMUM RECORDED TEMPERATURE
 LUN .               2958:   LOGGING UNIT NUMBER
 LUL .               CASP:   LOGGING UNIT LOCATION
 ENGI.             MILLER:   RECORDING ENGINEER
 WITN.           MCGINLEY:   WITNESSED BY
 CLNT.            A2DTECH:   CLIENT CODE
 ORIG.        2" 5" PRINT:   ORIGIN OF DATA
 UWI .       490251061100:   UNIQUE WELL ID
 DICO. A2D Technologies, Inc.:   DIGITIZING COMPANY
~OTHER INFORMATION
~A   DEPT      SPR        ILD         SN         GRD      CALD       DPOR       RHOB       CORR   
# ...
  153.5000   -64.4373     7.1469     8.1308    79.1842     7.9764     0.1260     2.4351     0.0019
  154.0000   -64.4794     7.1208     8.0287    79.6176     7.9789     0.1167     2.4416     0.0073
  154.5000   -64.5213     7.0945     7.9520    80.2254     7.9813     0.1113     2.4666     0.0128
  155.0000   -64.5642     7.0683     7.9427    80.2212     7.9838     0.1168     2.4688     0.0168
  155.5000   -64.6049     7.0423     7.9332    80.0851     7.9863     0.1221     2.4642     0.0160
  156.0000   -64.6467     7.0163     7.9237    79.9320     7.9873     0.1248     2.4622     0.0140
  156.5000   -64.6886     6.9904     7.9142    80.9654     7.9762     0.1179     2.4628     0.0115
  157.0000   -64.7304     6.9646     7.9046    82.5671     7.9650     0.1152     2.4597     0.0089
  157.5000   -64.7723     6.9274     7.8951    83.7604     7.9538     0.1195     2.4557     0.0076
  158.0000   -64.8141     6.9308     7.8860    81.1957     7.9488     0.1297     2.4520     0.0062
  158.5000   -64.8561     6.9370     7.8624    78.7920     7.9464     0.1398     2.4503     0.0049
  159.0000   -64.8978     6.9431     7.8144    79.7970     7.9440     0.1453     2.4487     0.0038
  159.5000   -64.9398     6.9493     7.7663    81.2495     7.9417     0.1435     2.4428     0.0033
  160.0000   -64.9266     6.9555     7.7186    82.3477     7.9394     0.1408     2.4336     0.0028
  160.5000   -64.8637     6.9617     7.6712    81.4166     7.9371     0.1417     2.4323     0.0023
  161.0000   -64.8003     6.9679     7.6241    80.7623     7.9348     0.1413     2.4345     0.0029
  161.5000   -64.7367     6.9741     7.5773    80.5657     7.9324     0.1409     2.4362     0.0047
  162.0000   -64.6732     6.9803     7.5267    80.3266     7.9296     0.1406     2.4361     0.0065
  162.5000   -64.6097     6.9866     7.5267    79.1888     7.9238     0.1382     2.4361     0.0083
  163.0000   -64.5564     6.9911     7.5267    78.3696     7.9180     0.1343     2.4372     0.0102
  163.5000   -64.5739     6.9717     7.5417    78.1664     7.9123     0.1361     2.4410     0.0119
  164.0000   -64.5937     6.9550     7.5568    82.0210     7.9007     0.1383     2.4475     0.0116
  164.5000   -64.6135     6.9383     7.5718    85.1981     7.8882     0.1386     2.4433     0.0092
  165.0000   -64.6332     6.9216     7.5871    84.0029     7.8752     0.1390     2.4411     0.0067
  165.5000   -64.6530     6.9051     7.5953    82.7072     7.8755     0.1413     2.4410     0.0043
  166.0000   -64.6727     6.8885     7.5267    81.6491     7.8798     0.1436     2.4384     0.0020
  166.5000   -64.6925     6.8638     7.5610    81.2943     7.8843     0.1457     2.4311     0.0033
  167.0000   -64.7123     6.9002     7.5941    81.2919     7.8885     0.1454     2.4281     0.0048
  167.5000   -64.7318     6.9726     7.6274    81.3201     7.8882     0.1430     2.4282     0.0064
  168.0000   -64.7525     7.0459     7.6607    80.8620     7.8728     0.1451     2.4283     0.0078
  168.5000   -64.6987     7.1199     7.6943    73.0982     7.8582     0.1473     2.4271     0.0054
  169.0000   -64.6045     7.1877     7.7280    78.3144     7.8434     0.1447     2.4257     0.0028
  169.5000   -64.5592     7.1878     7.7688    80.2994     7.8287     0.1412     2.4254     0.0014
  170.0000   -64.5581     7.1874     7.8129    80.9715     7.8140     0.1390     2.4274     0.0035
  170.5000   -64.5581     7.2268     7.8571    81.1123     7.7987     0.1373     2.4365     0.0049
  171.0000   -64.5582     7.2542     7.9156    80.2603     7.7928     0.1366     2.4457     0.0051
  171.5000   -64.5582     7.2227     7.9920    79.7403     7.7896     0.1373     2.4497     0.0026
  172.0000   -64.5582     7.1876     8.0511    79.9202     7.7865     0.1400     2.4429     0.0002
  172.5000   -64.5582     7.2802     8.0941    80.9458     7.7834     0.1430     2.4358    -0.0011
  173.0000   -64.5582     7.4467     8.1375    81.1613     7.7803     0.1320     2.4332     0.0003
  173.5000   -64.5582     7.6169     8.1788    80.9532     7.7771     0.1200     2.4331     0.0015
  174.0000   -64.5582     7.7421     8.3288    81.3649     7.7874     0.1268     2.4374     0.0026
  174.5000   -64.5582     7.7565     8.4746    82.0100     7.8100     0.1314     2.4440     0.0029
  175.0000   -64.5582     7.7708     8.5648    82.0345     7.8327     0.1228     2.4512     0.0018
  175.5000   -64.5582     7.7852     8.5634    79.3693     7.8555     0.1240     2.4584     0.0077
  176.0000   -64.5582     7.7996     8.5640    76.8415     7.8778     0.1475     2.4636     0.0126
  176.5000   -64.5582     7.8818     8.5954    76.8849     7.9010     0.1549     2.4435     0.0000
  177.0000   -64.5582     7.8444     8.6250    79.9779     7.9237     0.1538     2.4225    -0.0043
  177.5000   -64.5582     7.7762     8.6430    83.3889     7.9465     0.1527     2.4134    -0.0018
  178.0000   -64.5582     7.7085     8.5199    85.3310     7.9683     0.1516     2.4133     0.0009
  178.5000   -64.5582     7.6415     8.4327    84.1512     7.9731     0.1536     2.4165     0.0005
  179.0000   -64.5582     7.5964     8.3646    83.3669     7.9777     0.1568     2.4200    -0.0001
  179.5000   -64.5582     7.6773     8.3045    82.9712     7.9825     0.1600     2.4204    -0.0008
  180.0000   -64.5582     7.7378     8.2449    81.2538     7.9875     0.1589     2.4161    -0.0014
  180.5000   -64.5582     7.5507     8.1857    79.0385     7.9813     0.1564     2.4118    -0.0020
  181.0000   -64.5582     7.3715     8.1779    76.8549     7.9718     0.1539     2.4125    -0.0022
  181.5000   -64.5582     7.2403     8.0944    76.6273     7.9622     0.1538     2.4140    -0.0025
  182.0000   -64.5582     7.1987     8.0034    76.7575     7.9529     0.1533     2.4144    -0.0027
  182.5000   -64.5579     7.1573     7.9135    78.9973     7.9304     0.1494     2.4143    -0.0030
  183.0000   -64.5603     7.1162     7.8816    80.2573     7.9028     0.1474     2.4182    -0.0013
  183.5000   -64.6076     7.0753     7.8818    79.3168     7.8750     0.1513     2.4234     0.0013
  184.0000   -64.6544     7.0391     7.8316    78.9718     7.8522     0.1552     2.4206     0.0038
  184.5000   -64.7009     7.0070     7.7381    80.7063     7.8600     0.1445     2.4124     0.0029
  185.0000   -64.7474     6.9750     7.6664    83.5396     7.8688     0.1475     2.4215     0.0022
  185.5000   -64.7939     6.9432     7.6665    85.4411     7.8775     0.1521     2.4283     0.0035
  186.0000   -64.8405     6.8092     7.6669    86.2736     7.8861     0.1504     2.4243     0.0049
  186.5000   -64.8870     6.5795     7.5111    84.8401     7.8955     0.1480     2.4192     0.0038
  187.0000   -64.9331     6.3568     7.3462    84.8762     7.9193     0.1475     2.4213     0.0030
  187.5000   -64.9479     6.2353     7.2185    85.3746     7.9430     0.1469     2.4234     0.0030
  188.0000   -64.9193     6.1363     7.1364    84.5851     7.9666     0.1463     2.4255     0.0030
  188.5000   -64.8911     6.0698     7.0552    80.7984     7.9628     0.1460     2.4264     0.0030
  189.0000   -64.8628     6.0335     6.9750    80.8326     7.9555     0.1457     2.4270     0.0030
  189.5000   -64.8345     5.9974     6.9007    80.7039     7.9501     0.1465     2.4272     0.0039
  190.0000   -64.8062     5.9773     6.8638    82.4759     7.9723     0.1476     2.4236     0.0058
  190.5000   -64.7781     6.0374     6.9837    85.3658     7.9955     0.1487     2.4211     0.0076
  191.0000   -64.7591     6.0885     7.0680    85.6876     8.0077     0.1503     2.4205     0.0067
  191.5000   -64.7820     6.0885     7.1217    81.1113     8.0078     0.1524     2.4183     0.0050
  192.0000   -64.8063     6.0885     7.1217    80.3057     8.0129     0.1546     2.4140     0.0060
  192.5000   -64.8307     6.0885     7.1217    79.9501     8.0285     0.1534     2.4104     0.0069
  193.0000   -64.8550     6.0497     7.0029    80.0577     8.0440     0.1485     2.4145     0.0079
  193.5000   -64.8794     5.9220     6.8696    80.1764     8.0465     0.1528     2.4254     0.0088
