~VERSION INFORMATION
 VERS.                2.0:   CWLS LOG ASCII STANDARD - VERSION 2.0
 WRAP.                 NO:   ONE LINE PER DEPTH STEP
~WELL INFORMATION
#MNEM.UNIT      DATA TYPE    INFORMATION
#----------   ------------   ------------------------------
 STRT.F           32.0000:   START DEPTH
 STOP.F         1082.0000:   STOP DEPTH
 STEP.F            0.5000:   STEP LENGTH
 NULL.          -999.2500:   NO VALUE
 COMP. FENIX & SCISSON INC:   COMPANY
 WELL. NAVAL PETROLEUM RESERVE 3 SX #55-14:   WELL
 FLD .        TEAPOT DOME:   FIELD
 LOC .      S14 T38N R78W:   LOCATION
 CNTY.            NATRONA:   COUNTY
 STAT.            WYOMING:   STATE
 CTRY. UNITED STATES OF AMERICA:   COUNTRY
 SRVC.            Unknown:   SERVICE COMPANY
 DATE.        22-APR-1978:   LOGDATE
 API .       490251061100:   API NUMBER
~CURVE INFORMATION
#MNEM.UNIT       API CODE    CURVE DESCRIPTION
#----------   ------------   ------------------------------
 DEPT.F                  :   
 SPR .MV     05 010 01 00:   SPONTANEOUS POTENTIAL FROM RES.
 ILD .OHMM   05 120 46 00:   INDUCTION LOG DEEP
 SN  .OHMM   05 040 16 00:   SHORT NORMAL 16"
 GRD .GAPI   45 310 01 00:   GAMMA RAY FROM DENSITY LOG
 CALD.IN     45 280 60 00:   CALIPER
 DPOR.DEC    45 890 12 00:   DENSITY POROSITY SANDSTONE
 RHOB.G/C3   45 350 01 00:   BULK DENSITY
 CORR.G/C3   45 356 01 00:   DENSITY CORRECTION
~PARAMETER INFORMATION
#MNEM.UNIT          VALUE    DESCRIPTION
#----------   ------------   ------------------------------
 PD  .                 GL:   PERMANENT DATUM
 EPD .F              5288:   ELEVATION PERMANENT DATUM
 LMF .                 KB:   LOG MEASURED FROM
 DAPD.F                 4:   FEET ABOVE PERMANENT DATUM
 DMF .                 KB:   DRILLING MEASURED FROM
 EKB .F              5292:   KELLING BUSHING
 EGL .F              5288:   GROUND LEVEL
 DATE.            4-22-78:   RUN DATE
 RUN .                  1:   RUN NUMBER
 DD  .F              1080:   DEPTH DRILLER
 DL  .F              1080:   DEPTH LOGGER
 BLI .F              1074:   BOTTOM LOG INTERVAL
 TLI .F                50:   TOP LOG INTERVAL
 CS  .IN            8.625:   CASING SIZE
 CBD .F                40:   CASING BOTTOM DRILLER
 CBL .F                40:   CASING BOTTOM LOGGER
 BS  .IN            7.875:   BIT SIZE
 BSD .F              1080:   BIT SIZE AT DEPTH
 DFT .                KCL:   DRILLING FLUID TYPE
 DFD .                8.6:   DRILLING FLUID DENSITY
 DFV .                 33:   DRILLING FLUID VISCOSITY
 DFPH.               10.2:   DRILLING FLUID PH
 DFL .                8.6:   DRILLING FLUID LOSS
 MSS .            MUD PIT:   MUD SAMPLE SOURCE
 RMS .OHMM            .42:   RESISTIVITY MUD SAMPLE
 MST .F                60:   MUD SAMPLE TEMPERATURE
 RMF .OHMM            .38:   RESISTIVITY MUD FILTRATE SAMPLE
 MFST.F                62:   MUD FILTRATE SAMPLE TEMPERATURE
 RMC .OHMM             .7:   RESISTIVITY MUD CAKE
 MCST.F                62:   MUD CAKE SAMPLE TEMPERATURE
 MFSS.           MEASURED:   MUD FILTRATE SAMPLE SOURCE
 MCSS.           MEASURED:   MUD CAKE SAMPLE SOURCE
 RMB .OHMM            .34:   RESISTIVITY MUD AT BHT
 BHT .F                74:   BOTTOM HOLE TEMPERATURE
 TCS .HRS               5:   TIME CURCULATED STOPPED
 MRT .F                74:   MAXIMUM RECORDED TEMPERATURE
 LUN .               2958:   LOGGING UNIT NUMBER
 LUL .               CASP:   LOGGING UNIT LOCATION
 ENGI.             MILLER:   RECORDING ENGINEER
 WITN.           MCGINLEY:   WITNESSED BY
 CLNT.            A2DTECH:   CLIENT CODE
 ORIG.        2" 5" PRINT:   ORIGIN OF DATA
 UWI .       490251061100:   UNIQUE WELL ID
 DICO. A2D Technologies, Inc.:   DIGITIZING COMPANY
~OTHER INFORMATION
~A   DEPT      SPR        ILD         SN         GRD      CALD       DPOR       RHOB       CORR   
# ...
  923.0000   -56.0490     9.5051    10.1532    65.8175     7.7597     0.1228     2.4569     0.0208
  923.5000   -56.0655     9.5256    10.1414    65.8059     7.7557     0.1291     2.4653     0.0208
  924.0000   -56.0821     9.5463    10.1296    66.8917     7.7814     0.1316     2.4646     0.0210
  924.5000   -56.0986     9.5653    10.1179    68.2048     7.8134     0.1356     2.4537     0.0231
  925.0000   -56.1144     9.5655    10.1094    66.8509     7.8321     0.1400     2.4439     0.0248
  925.5000   -56.0948     9.5656    10.1097    65.9472     7.8188     0.1462     2.4389     0.0264
  926.0000   -56.0228     9.5656    10.1089    68.5262     7.8062     0.1546     2.4339     0.0280
  926.5000   -55.9513     9.5649    10.1653    71.6559     7.7950     0.1633     2.4223     0.0296
  927.0000   -55.8796     9.6745    10.2625    72.2412     7.7950     0.1712     2.4082     0.0308
  927.5000   -55.8079     9.8200    10.4379    68.8685     7.7950     0.1820     2.3940     0.0315
  928.0000   -55.7346    10.1295    10.6610    66.3318     7.7906     0.1927     2.3793     0.0322
  928.5000   -55.7427    10.4487    10.8881    63.7807     7.7651     0.2034     2.3639     0.0341
  929.0000   -55.7674    10.7779    11.1325    63.0937     7.7400     0.2044     2.3483     0.0416
  929.5000   -55.7923    11.1176    11.4381    63.7954     7.7152     0.1987     2.3328     0.0492
  930.0000   -55.8171    11.3305    11.7536    64.3756     7.6936     0.1913     2.3299     0.0581
  930.5000   -55.8418    11.5116    11.9761    59.4867     7.6800     0.1813     2.3470     0.0736
  931.0000   -55.8664    11.6956    12.1163    55.6033     7.6661     0.1778     2.3745     0.0880
  931.5000   -55.8915    11.8827    12.3784    57.5054     7.6523     0.1933     2.3869     0.0836
  932.0000   -55.9144    12.0727    12.6463    59.4378     7.6386     0.2048     2.3587     0.0627
  932.5000   -56.0443    12.2670    12.9199    60.6065     7.6243     0.1980     2.3356     0.0288
  933.0000   -56.2155    12.3823    13.0872    59.3643     7.6169     0.1976     2.3311     0.0057
  933.5000   -56.3888    12.2970    12.9826    58.0053     7.6113     0.1972     2.3346     0.0019
  934.0000   -56.5297    12.2353    12.8801    56.8963     7.6058     0.1927     2.3389     0.0017
  934.5000   -56.5264    12.1570    12.7784    58.4699     7.6002     0.2032     2.3413     0.0016
  935.0000   -56.5262    12.1787    12.6775    60.6247     7.5947     0.2001     2.3417     0.0014
  935.5000   -56.5261    12.2091    12.6133    61.3849     7.5891     0.1968     2.3421     0.0013
  936.0000   -56.5261    12.2396    12.6763    62.1865     7.5831     0.1964     2.3437     0.0011
  936.5000   -56.5261    12.2692    12.7315    62.0632     7.5921     0.1942     2.3454     0.0010
  937.0000   -56.5261    12.0300    12.6366    61.7104     7.6051     0.1919     2.3471     0.0013
  937.5000   -56.5261    11.8032    12.4907    60.1289     7.6181     0.1904     2.3487     0.0015
  938.0000   -56.5261    11.6004    12.3474    58.7285     7.6310     0.1900     2.3504     0.0018
  938.5000   -56.5261    11.5340    12.2058    61.5303     7.6452     0.1895     2.3521     0.0020
  939.0000   -56.5262    11.4680    12.0658    63.7761     7.6831     0.1906     2.3530     0.0023
  939.5000   -56.5266    11.4024    11.9275    63.8690     7.6507     0.1936     2.3530     0.0025
  940.0000   -56.5237    11.3371    11.8250    63.5188     7.2934     0.1960     2.3503     0.0027
  940.5000   -56.4508    11.2722    11.8250    63.4600     7.1998     0.1933     2.3450     0.0030
  941.0000   -56.3773    11.2076    11.8250    65.0615     7.4038     0.1902     2.3463     0.0032
  941.5000   -56.3315    11.1435    11.7673    66.9721     7.6293     0.1885     2.3500     0.0035
  942.0000   -56.3564    11.0797    11.6599    64.5717     7.6191     0.1882     2.3521     0.0037
  942.5000   -56.3798    11.0162    11.5535    64.4413     7.5920     0.1879     2.3527     0.0040
  943.0000   -56.4034    10.9532    11.4483    65.3644     7.6085     0.1873     2.3546     0.0058
  943.5000   -56.4270    10.8904    11.3441    66.2690     7.6510     0.1816     2.3576     0.0078
  944.0000   -56.4506    10.8695    11.2923    66.5139     7.6939     0.1727     2.3624     0.0088
  944.5000   -56.4742    10.8539    11.2923    65.1343     7.6834     0.1707     2.3747     0.0085
  945.0000   -56.4978    10.8382    11.2923    65.1611     7.6619     0.1689     2.3837     0.0082
  945.5000   -56.5219    10.8226    11.2923    66.0423     7.6404     0.1671     2.3897     0.0080
  946.0000   -56.5261    10.8072    11.2924    68.4456     7.6189     0.1660     2.3947     0.0088
  946.5000   -56.5262    10.7878    11.2931    70.6154     7.5975     0.1684     2.3954     0.0096
  947.0000   -56.5261    10.7886    11.2923    70.0303     7.5822     0.1707     2.3942     0.0104
  947.5000   -56.5261    10.5939    11.1224    68.6834     7.5890     0.1637     2.3884     0.0109
  948.0000   -56.5261    10.4894    10.8834    67.3455     7.5953     0.1534     2.3840     0.0097
  948.5000   -56.5261    10.4896    10.8560    66.0466     7.6013     0.1496     2.4068     0.0084
  949.0000   -56.5261    10.4903    10.8297    65.7565     7.6010     0.1557     2.4155     0.0073
  949.5000   -56.5261    10.4911    10.8029    65.5255     7.6212     0.1600     2.4200     0.0062
  950.0000   -56.5261    10.3840    10.7711    64.5445     7.6446     0.1640     2.4096     0.0052
  950.5000   -56.5261    10.2305    10.6435    63.2169     7.6683     0.1647     2.3972     0.0041
  951.0000   -56.5263    10.0793    10.5175    62.6436     7.6723     0.1636     2.3917     0.0031
  951.5000   -56.5262     9.9821    10.3931    62.7304     7.6608     0.1605     2.3928     0.0020
  952.0000   -56.5121     9.9228    10.3868    64.7054     7.6490     0.1572     2.3973     0.0010
  952.5000   -56.4409     9.8639    10.3804    65.0682     7.6409     0.1560     2.4046     0.0006
  953.0000   -56.3727     9.8338    10.3741    66.2863     7.6625     0.1573     2.4040     0.0001
  953.5000   -56.3402     9.8338    10.3677    67.5251     7.6837     0.1592     2.4034    -0.0009
  954.0000   -56.3910     9.8338    10.3614    65.4182     7.6897     0.1608     2.3988    -0.0026
  954.5000   -56.4402     9.8338    10.3551    65.2026     7.6614     0.1610     2.3985    -0.0038
  955.0000   -56.4898     9.8338    10.3487    65.4275     7.6337     0.1611     2.3979    -0.0023
  955.5000   -56.5392     9.8338    10.3424    65.2135     7.6059     0.1623     2.3945    -0.0008
  956.0000   -56.5887     9.8338    10.3361    64.0525     7.5871     0.1655     2.3926     0.0021
  956.5000   -56.6384     9.8328    10.3298    63.6909     7.5647     0.1724     2.3925     0.0069
  957.0000   -56.6878     9.8252    10.3235    63.9576     7.5432     0.1746     2.3903     0.0116
  957.5000   -56.7133     9.8177    10.3172    65.4364     7.5555     0.1614     2.3824     0.0125
  958.0000   -56.6312     9.8101    10.3109    67.3022     7.7042     0.1496     2.3814     0.0159
  958.5000   -56.5492     9.8026    10.3046    69.1885     7.8003     0.1394     2.3917     0.0243
  959.0000   -56.5872     9.7950    10.2979    69.0199     7.8248     0.1374     2.4015     0.0320
  959.5000   -56.6705     9.7875    10.2837    66.6093     7.8501     0.1378     2.4022     0.0376
  960.0000   -56.6861     9.7800    10.2684    64.2655     7.8746     0.1428     2.4014     0.0418
  960.5000   -56.5681     9.7725    10.2531    63.0090     7.8903     0.1471     2.4004     0.0421
  961.0000   -56.5268     9.7650    10.2379    63.6232     7.8764     0.1418     2.4115     0.0424
  961.5000   -56.5259     9.7576    10.2226    63.6856     7.8628     0.1427     2.4262     0.0492
  962.0000   -56.5259     9.7501    10.2074    62.5297     7.8493     0.1461     2.4354     0.0579
  962.5000   -56.5257     9.7368    10.1681    62.3137     7.8367     0.1450     2.4279     0.0553
  963.0000   -56.5212     9.6892    10.1197    64.0900     7.7941     0.1410     2.4220     0.0459
