~VERSION INFORMATION
 VERS.                2.0:   CWLS LOG ASCII STANDARD - VERSION 2.0
 WRAP.                 NO:   ONE LINE PER DEPTH STEP
~WELL INFORMATION
#MNEM.UNIT      DATA TYPE    INFORMATION
#----------   ------------   ------------------------------
 STRT.F           32.0000:   START DEPTH
 STOP.F         1082.0000:   STOP DEPTH
 STEP.F            0.5000:   STEP LENGTH
 NULL.          -999.2500:   NO VALUE
 COMP. FENIX & SCISSON INC:   COMPANY
 WELL. NAVAL PETROLEUM RESERVE 3 SX #55-14:   WELL
 FLD .        TEAPOT DOME:   FIELD
 LOC .      S14 T38N R78W:   LOCATION
 CNTY.            NATRONA:   COUNTY
 STAT.            WYOMING:   STATE
 CTRY. UNITED STATES OF AMERICA:   COUNTRY
 SRVC.            Unknown:   SERVICE COMPANY
 DATE.        22-APR-1978:   LOGDATE
 API .       490251061100:   API NUMBER
~CURVE INFORMATION
#MNEM.UNIT       API CODE    CURVE DESCRIPTION
#----------   ------------   ------------------------------
 DEPT.F                  :   
 SPR .MV     05 010 01 00:   SPONTANEOUS POTENTIAL FROM RES.
 ILD .OHMM   05 120 46 00:   INDUCTION LOG DEEP
 SN  .OHMM   05 040 16 00:   SHORT NORMAL 16"
 GRD .GAPI   45 310 01 00:   GAMMA RAY FROM DENSITY LOG
 CALD.IN     45 280 60 00:   CALIPER
 DPOR.DEC    45 890 12 00:   DENSITY POROSITY SANDSTONE
 RHOB.G/C3   45 350 01 00:   BULK DENSITY
 CORR.G/C3   45 356 01 00:   DENSITY CORRECTION
~PARAMETER INFORMATION
#MNEM.UNIT          VALUE    DESCRIPTION
#----------   ------------   ------------------------------
 PD  .                 GL:   PERMANENT DATUM
 EPD .F              5288:   ELEVATION PERMANENT DATUM
 LMF .                 KB:   LOG MEASURED FROM
 DAPD.F                 4:   FEET ABOVE PERMANENT DATUM
 DMF .                 KB:   DRILLING MEASURED FROM
 EKB .F              5292:   KELLING BUSHING
 EGL .F              5288:   GROUND LEVEL
 DATE.            4-22-78:   RUN DATE
 RUN .                  1:   RUN NUMBER
 DD  .F              1080:   DEPTH DRILLER
 DL  .F              1080:   DEPTH LOGGER
 BLI .F              1074:   BOTTOM LOG INTERVAL
 TLI .F                50:   TOP LOG INTERVAL
 CS  .IN            8.625:   CASING SIZE
 CBD .F                40:   CASING BOTTOM DRILLER
 CBL .F                40:   CASING BOTTOM LOGGER
 BS  .IN            7.875:   BIT SIZE
 BSD .F              1080:   BIT SIZE AT DEPTH
 DFT .                KCL:   DRILLING FLUID TYPE
 DFD .                8.6:   DRILLING FLUID DENSITY
 DFV .                 33:   DRILLING FLUID VISCOSITY
 DFPH.               10.2:   DRILLING FLUID PH
 DFL .                8.6:   DRILLING FLUID LOSS
 MSS .            MUD PIT:   MUD SAMPLE SOURCE
 RMS .OHMM            .42:   RESISTIVITY MUD SAMPLE
 MST .F                60:   MUD SAMPLE TEMPERATURE
 RMF .OHMM            .38:   RESISTIVITY MUD FILTRATE SAMPLE
 MFST.F                62:   MUD FILTRATE SAMPLE TEMPERATURE
 RMC .OHMM             .7:   RESISTIVITY MUD CAKE
 MCST.F                62:   MUD CAKE SAMPLE TEMPERATURE
 MFSS.           MEASURED:   MUD FILTRATE SAMPLE SOURCE
 MCSS.           MEASURED:   MUD CAKE SAMPLE SOURCE
 RMB .OHMM            .34:   RESISTIVITY MUD AT BHT
 BHT .F                74:   BOTTOM HOLE TEMPERATURE
 TCS .HRS               5:   TIME CURCULATED STOPPED
 MRT .F                74:   MAXIMUM RECORDED TEMPERATURE
 LUN .               2958:   LOGGING UNIT NUMBER
 LUL .               CASP:   LOGGING UNIT LOCATION
 ENGI.             MILLER:   RECORDING ENGINEER
 WITN.           MCGINLEY:   WITNESSED BY
 CLNT.            A2DTECH:   CLIENT CODE
 ORIG.        2" 5" PRINT:   ORIGIN OF DATA
 UWI .       490251061100:   UNIQUE WELL ID
 DICO. A2D Technologies, Inc.:   DIGITIZING COMPANY
~OTHER INFORMATION
~A   DEPT      SPR        ILD         SN         GRD      CALD       DPOR       RHOB       CORR   
# ...
  113.0000   -64.4478     5.7179     6.7080    77.5867     7.7750     0.1478     2.4218    -0.0002
  113.5000   -64.5235     5.6882     6.6915    75.8328     7.7442     0.1461     2.4243     0.0011
  114.0000   -64.5576     5.6588     6.6766    76.4388     7.7475     0.1532     2.4263     0.0016
  114.5000   -64.5583     5.6033     6.5379    78.2481     7.7670     0.1568     2.4206    -0.0003
  115.0000   -64.5583     5.5290     6.4132    78.1627     7.8424     0.1558     2.4132    -0.0021
  115.5000   -64.5582     5.4509     6.2910    75.6910     7.9359     0.1545     2.4120    -0.0038
  116.0000   -64.5583     5.3943     6.2277    74.1620     7.9524     0.1550     2.4121    -0.0038
  116.5000   -64.5581     5.3500     6.1365    74.6085     7.9708     0.1524     2.4134    -0.0005
  117.0000   -64.5672     5.3061     6.0202    75.9611     8.0085     0.1476     2.4144     0.0027
  117.5000   -64.5810     5.2625     5.9062    77.3876     8.0451     0.1455     2.4179     0.0059
  118.0000   -64.5950     5.2535     5.7944    78.5208     8.0279     0.1424     2.4289     0.0109
  118.5000   -64.6090     5.2535     5.7080    78.9731     7.9947     0.1410     2.4395     0.0166
  119.0000   -64.6230     5.2535     5.7141    78.5028     7.9608     0.1410     2.4482     0.0190
  119.5000   -64.6370     5.2766     5.7404    77.7607     7.9359     0.1481     2.4440     0.0205
  120.0000   -64.6509     5.2991     5.7613    77.4020     7.9050     0.1454     2.4282     0.0213
  120.5000   -64.6649     5.3984     5.8556    79.0946     7.8731     0.1411     2.4209     0.0110
  121.0000   -64.6789     5.5466     5.9502    79.2055     7.8228     0.1374     2.4386     0.0100
  121.5000   -64.6928     5.6996     6.1435    78.8946     7.7694     0.1378     2.4534     0.0162
  122.0000   -64.7068     5.8692     6.3983    79.3223     7.7190     0.1409     2.4473     0.0220
  122.5000   -64.7208     5.8630     6.6766    80.1411     7.7082     0.1458     2.4375     0.0184
  123.0000   -64.7348     5.8574     6.6766    80.9745     7.6974     0.1505     2.4284     0.0130
  123.5000   -64.7488     5.8518     6.6766    81.8063     7.6863     0.1521     2.4210     0.0074
  124.0000   -64.7595     5.8462     6.6200    82.6830     7.6753     0.1505     2.4170     0.0029
  124.5000   -64.7590     5.8406     6.5611    81.2181     7.6640     0.1482     2.4205     0.0013
  125.0000   -64.7419     5.8351     6.5030    78.6124     7.6752     0.1496     2.4259     0.0004
  125.5000   -64.6707     5.8295     6.4348    77.3136     7.7015     0.1545     2.4293    -0.0005
  126.0000   -64.6036     5.8240     6.4700    77.1230     7.7286     0.1536     2.4211    -0.0009
  126.5000   -64.5637     5.8180     6.5134    79.5643     7.7433     0.1519     2.4125    -0.0007
  127.0000   -64.5828     5.8138     6.5570    81.9903     7.7571     0.1501     2.4139    -0.0004
  127.5000   -64.6008     5.8864     6.6009    84.4748     7.7706     0.1489     2.4150    -0.0002
  128.0000   -64.6191     5.9446     6.6153    84.8182     7.7842     0.1471     2.4207     0.0000
  128.5000   -64.6373     6.0033     6.6153    81.0688     7.7952     0.1430     2.4238     0.0002
  129.0000   -64.6555     6.0773     6.6153    76.8031     7.7950     0.1458     2.4269     0.0004
  129.5000   -64.6738     6.1667     6.7063    72.5281     7.7950     0.1461     2.4310     0.0007
  130.0000   -64.6920     6.2575     6.8074    68.5771     7.7950     0.1493     2.4292     0.0009
  130.5000   -64.7102     6.3287     6.9099    68.4410     7.7994     0.1529     2.4272     0.0006
  131.0000   -64.7285     6.3617     7.0141    76.1794     7.8137     0.1564     2.4286    -0.0002
  131.5000   -64.7464     6.3948     7.1217    78.5513     7.8281     0.1574     2.4309    -0.0009
  132.0000   -64.7592     6.4281     7.1059    80.8455     7.8336     0.1532     2.4201    -0.0016
  132.5000   -64.7590     6.4616     7.0888    80.6346     7.8337     0.1490     2.4050    -0.0015
  133.0000   -64.7590     6.4944     7.0719    76.9829     7.8337     0.1461     2.4108    -0.0007
  133.5000   -64.7590     6.5138     7.0563    76.1064     7.8336     0.1471     2.4210     0.0002
  134.0000   -64.7590     6.5372     7.1054    75.6747     7.8486     0.1529     2.4259     0.0011
  134.5000   -64.7590     6.5608     7.1530    76.4910     7.8781     0.1537     2.4224     0.0019
  135.0000   -64.7590     6.5844     7.2009    77.5613     7.9109     0.1513     2.4193     0.0010
  135.5000   -64.7544     6.6081     7.2491    78.4049     7.9339     0.1509     2.4177     0.0000
  136.0000   -64.7435     6.6319     7.2977    77.8366     7.9421     0.1537     2.4158    -0.0009
  136.5000   -64.7327     6.6560     7.3220    76.5926     7.9504     0.1637     2.4111     0.0003
  137.0000   -64.7218     6.6769     7.2716    76.2903     7.9587     0.1671     2.4050     0.0018
  137.5000   -64.7110     6.6042     7.2339    77.8958     7.9672     0.1622     2.3989     0.0032
  138.0000   -64.7001     6.5272     7.1963    81.6768     7.9741     0.1541     2.3940     0.0046
  138.5000   -64.6893     6.3888     7.1387    85.2481     7.9809     0.1565     2.4095     0.0060
  139.0000   -64.6784     6.2077     7.0754    86.0897     7.9887     0.1584     2.4141     0.0075
  139.5000   -64.6676     6.0314     7.0127    86.1920     7.9428     0.1543     2.4035     0.0090
  140.0000   -64.6567     6.0332     6.9505    83.1357     7.8860     0.1490     2.3976     0.0044
  140.5000   -64.6459     6.0076     6.8602    80.0755     7.8724     0.1436     2.4192    -0.0012
  141.0000   -64.6350     5.9903     6.7542    79.9109     7.8670     0.1408     2.4291    -0.0012
  141.5000   -64.6242     5.9773     6.6766    79.5630     7.8577     0.1390     2.4385     0.0029
  142.0000   -64.6133     6.0369     6.6766    78.6084     7.8482     0.1422     2.4475     0.0060
  142.5000   -64.6024     6.0933     6.7363    78.7760     7.8387     0.1453     2.4410     0.0047
  143.0000   -64.5916     6.1502     6.9496    79.0739     7.8337     0.1450     2.4334     0.0012
  143.5000   -64.5807     6.2386     7.1695    78.8395     7.8432     0.1380     2.4284     0.0000
  144.0000   -64.5697     6.5651     7.3965    77.6859     7.8769     0.1305     2.4290     0.0000
  144.5000   -64.5589     6.9274     7.4944    78.3110     7.9099     0.1230     2.4394     0.0012
  145.0000   -64.5752     6.9437     7.5446    80.8500     7.9348     0.1155     2.4538     0.0029
  145.5000   -64.5939     6.9732     7.5964    82.4714     7.9457     0.1109     2.4683     0.0046
  146.0000   -64.6125     7.0124     7.7126    74.9192     7.9569     0.1204     2.4828     0.0063
  146.5000   -64.6310     7.0964     7.8337    68.2990     7.9677     0.1220     2.4935     0.0061
  147.0000   -64.6496     7.3012     8.0229    66.1730     7.9738     0.1160     2.4864     0.0021
  147.5000   -64.6681     7.5120     8.2536    63.0719     7.9790     0.1287     2.4795    -0.0017
  148.0000   -64.6867     7.7290     8.5227    57.7438     7.9842     0.1373     2.4695    -0.0049
  148.5000   -64.7052     7.9522     8.7925    54.2747     7.9905     0.1441     2.4476    -0.0035
  149.0000   -64.7238     8.0623     9.1650    65.3705     8.0017     0.1479     2.4368    -0.0022
  149.5000   -64.7427     8.1126     9.6035    74.1509     8.0128     0.1517     2.4289    -0.0009
  150.0000   -64.7587     8.1779    10.0168    76.9982     8.0246     0.1545     2.4211    -0.0005
  150.5000   -64.6869     8.1309    10.0168    79.1092     8.0159     0.1542     2.4163    -0.0026
  151.0000   -64.6061     8.0413     9.4847    80.2495     8.0001     0.1524     2.4144    -0.0030
  151.5000   -64.5254     7.9548     9.0399    81.2562     7.9842     0.1500     2.4151    -0.0030
  152.0000   -64.4440     7.5355     8.6160    82.1730     7.9694     0.1452     2.4178    -0.0028
  152.5000   -64.3616     7.1876     8.3301    83.0630     7.9715     0.1405     2.4236    -0.0021
  153.0000   -64.3948     7.1736     8.2344    80.8635     7.9740     0.1352     2.4294    -0.0013
