~VERSION INFORMATION
 VERS.                2.0:   CWLS LOG ASCII STANDARD - VERSION 2.0
 WRAP.                 NO:   ONE LINE PER DEPTH STEP
~WELL INFORMATION
#MNEM.UNIT      DATA TYPE    INFORMATION
#----------   ------------   ------------------------------
 STRT.F           32.0000:   START DEPTH
 STOP.F         1082.0000:   STOP DEPTH
 STEP.F            0.5000:   STEP LENGTH
 NULL.          -999.2500:   NO VALUE
 COMP. FENIX & SCISSON INC:   COMPANY
 WELL. NAVAL PETROLEUM RESERVE 3 SX #55-14:   WELL
 FLD .        TEAPOT DOME:   FIELD
 LOC .      S14 T38N R78W:   LOCATION
 CNTY.            NATRONA:   COUNTY
 STAT.            WYOMING:   STATE
 CTRY. UNITED STATES OF AMERICA:   COUNTRY
 SRVC.            Unknown:   SERVICE COMPANY
 DATE.        22-APR-1978:   LOGDATE
 API .       490251061100:   API NUMBER
~CURVE INFORMATION
#MNEM.UNIT       API CODE    CURVE DESCRIPTION
#----------   ------------   ------------------------------
 DEPT.F                  :   
 SPR .MV     05 010 01 00:   SPONTANEOUS POTENTIAL FROM RES.
 ILD .OHMM   05 120 46 00:   INDUCTION LOG DEEP
 SN  .OHMM   05 040 16 00:   SHORT NORMAL 16"
 GRD .GAPI   45 310 01 00:   GAMMA RAY FROM DENSITY LOG
 CALD.IN     45 280 60 00:   CALIPER
 DPOR.DEC    45 890 12 00:   DENSITY POROSITY SANDSTONE
 RHOB.G/C3   45 350 01 00:   BULK DENSITY
 CORR.G/C3   45 356 01 00:   DENSITY CORRECTION
~PARAMETER INFORMATION
#MNEM.UNIT          VALUE    DESCRIPTION
#----------   ------------   ------------------------------
 PD  .                 GL:   PERMANENT DATUM
 EPD .F              5288:   ELEVATION PERMANENT DATUM
 LMF .                 KB:   LOG MEASURED FROM
 DAPD.F                 4:   FEET ABOVE PERMANENT DATUM
 DMF .                 KB:   DRILLING MEASURED FROM
 EKB .F              5292:   KELLING BUSHING
 EGL .F              5288:   GROUND LEVEL
 DATE.            4-22-78:   RUN DATE
 RUN .                  1:   RUN NUMBER
 DD  .F              1080:   DEPTH DRILLER
 DL  .F              1080:   DEPTH LOGGER
 BLI .F              1074:   BOTTOM LOG INTERVAL
 TLI .F                50:   TOP LOG INTERVAL
 CS  .IN            8.625:   CASING SIZE
 CBD .F                40:   CASING BOTTOM DRILLER
 CBL .F                40:   CASING BOTTOM LOGGER
 BS  .IN            7.875:   BIT SIZE
 BSD .F              1080:   BIT SIZE AT DEPTH
 DFT .                KCL:   DRILLING FLUID TYPE
 DFD .                8.6:   DRILLING FLUID DENSITY
 DFV .                 33:   DRILLING FLUID VISCOSITY
 DFPH.               10.2:   DRILLING FLUID PH
 DFL .                8.6:   DRILLING FLUID LOSS
 MSS .            MUD PIT:   MUD SAMPLE SOURCE
 RMS .OHMM            .42:   RESISTIVITY MUD SAMPLE
 MST .F                60:   MUD SAMPLE TEMPERATURE
 RMF .OHMM            .38:   RESISTIVITY MUD FILTRATE SAMPLE
 MFST.F                62:   MUD FILTRATE SAMPLE TEMPERATURE
 RMC .OHMM             .7:   RESISTIVITY MUD CAKE
 MCST.F                62:   MUD CAKE SAMPLE TEMPERATURE
 MFSS.           MEASURED:   MUD FILTRATE SAMPLE SOURCE
 MCSS.           MEASURED:   MUD CAKE SAMPLE SOURCE
 RMB .OHMM            .34:   RESISTIVITY MUD AT BHT
 BHT .F                74:   BOTTOM HOLE TEMPERATURE
 TCS .HRS               5:   TIME CURCULATED STOPPED
 MRT .F                74:   MAXIMUM RECORDED TEMPERATURE
 LUN .               2958:   LOGGING UNIT NUMBER
 LUL .               CASP:   LOGGING UNIT LOCATION
 ENGI.             MILLER:   RECORDING ENGINEER
 WITN.           MCGINLEY:   WITNESSED BY
 CLNT.            A2DTECH:   CLIENT CODE
 ORIG.        2" 5" PRINT:   ORIGIN OF DATA
 UWI .       490251061100:   UNIQUE WELL ID
 DICO. A2D Technologies, Inc.:   DIGITIZING COMPANY
~OTHER INFORMATION
~A   DEPT      SPR        ILD         SN         GRD      CALD       DPOR       RHOB       CORR   
# ...
  558.5000   -61.5557     6.8641     7.6916    91.6950     7.9110     0.1207     2.4727     0.0000
  559.0000   -61.5491     6.8638     7.8109    92.1952     7.9112     0.1191     2.4710    -0.0003
  559.5000   -61.5462     6.8638     7.8106    89.7493     7.8984     0.1184     2.4701    -0.0006
  560.0000   -61.5462     6.8638     7.8091    87.0324     7.8807     0.1201     2.4713    -0.0010
  560.5000   -61.5462     6.9131     7.8089    85.9804     7.8628     0.1192     2.4724    -0.0013
  561.0000   -61.5462     7.0251     7.8958    90.3823     7.8564     0.1172     2.4728    -0.0016
  561.5000   -61.5462     7.1390     7.9601    92.9058     7.8640     0.1188     2.4728    -0.0019
  562.0000   -61.5462     7.2542     7.9950    88.4544     7.8715     0.1196     2.4727    -0.0015
  562.5000   -61.5462     7.2736     8.0291    87.1352     7.8793     0.1181     2.4729    -0.0008
  563.0000   -61.5462     7.2964     8.1643    87.3369     7.8874     0.1155     2.4755    -0.0001
  563.5000   -61.5462     7.3213     8.2974    87.5582     7.9109     0.1155     2.4783     0.0006
  564.0000   -61.5461     7.4436     8.4312    87.7594     7.8975     0.1201     2.4808     0.0007
  564.5000   -61.5467     7.5753     8.4927    87.5186     7.8853     0.1205     2.4795     0.0001
  565.0000   -61.5624     7.5964     8.5084    85.8356     7.8726     0.1216     2.4761    -0.0006
  565.5000   -61.5783     7.5964     8.5246    84.2575     7.8410     0.1236     2.4728    -0.0012
  566.0000   -61.5941     7.5964     8.5407    84.1825     7.8066     0.1200     2.4697    -0.0018
  566.5000   -61.6099     7.5964     8.5584    87.4977     7.7922     0.1170     2.4702    -0.0026
  567.0000   -61.6257     7.6775     8.6807    89.6500     7.7856     0.1186     2.4731    -0.0035
  567.5000   -61.6414     7.7769     8.8854    89.5016     7.7793     0.1197     2.4757    -0.0043
  568.0000   -61.6572     7.8818     8.9729    89.4277     7.7730     0.1199     2.4749    -0.0045
  568.5000   -61.6730     8.0660     9.0687    89.4010     7.7666     0.1200     2.4740    -0.0024
  569.0000   -61.6888     8.2628     9.1619    89.6363     7.7601     0.1216     2.4723    -0.0023
  569.5000   -61.7046     8.3383     9.2561    90.6617     7.7428     0.1233     2.4704    -0.0027
  570.0000   -61.7204     8.3558     9.3512    89.9438     7.7071     0.1198     2.4684    -0.0029
  570.5000   -61.7362     8.3734     9.4474    88.3103     7.6715     0.1156     2.4678    -0.0024
  571.0000   -61.7520     8.3910     9.5445    88.7165     7.6369     0.1156     2.4714    -0.0014
  571.5000   -61.7678     8.4072     9.6426    92.2569     7.4123     0.1297     2.4786     0.0025
  572.0000   -61.7836     8.4948     9.6810    90.5782     6.9556     0.1396     2.4654     0.0037
  572.5000   -61.7994     8.5771     9.7200    92.9178     6.7266     0.1472     2.4438    -0.0022
  573.0000   -61.8152     8.6462     9.7591    91.1566     6.8217     0.1548     2.4314    -0.0040
  573.5000   -61.8310     8.6617     9.7984    87.9087     7.9212     0.1721     2.4193    -0.0040
  574.0000   -61.8468     8.6771     9.8338    84.9291     7.7454     0.1890     2.4006    -0.0030
  574.5000   -61.8625     8.6927     9.8338    83.5015     7.7290     0.1684     2.3812     0.0073
  575.0000   -61.8783     8.7085     9.8340    83.2268     7.7480     0.1480     2.3624     0.0311
  575.5000   -61.8941     8.7228     9.8331    83.1961     7.7313     0.1276     2.3940     0.0604
  576.0000   -61.9100     8.6687     9.8358    84.5038     7.6728     0.1072     2.4396     0.1127
  576.5000   -61.9257     8.6163     9.6379    86.0837     7.6131     0.0868     2.4495     0.1153
  577.0000   -61.9417     8.5645     9.4607    86.8716     7.6017     0.0601     2.4528     0.1189
  577.5000   -61.9383     8.5130     9.3961    87.6079     7.6127     0.0723     2.5057     0.1478
  578.0000   -61.9231     8.4802     9.3839    88.3021     7.6385     0.0967     2.5559     0.1828
  578.5000   -61.9076     8.4695     9.9249    88.5191     7.6638     0.1071     2.5796     0.1403
  579.0000   -61.8922     8.4587     9.5982    89.2473     7.6785     0.1073     2.4991     0.0876
  579.5000   -61.8767     8.4480     9.3908    91.2318     7.6629     0.1144     2.4969     0.0446
  580.0000   -61.8613     8.4373     9.4017    93.6443     7.6470     0.1196     2.4884     0.0275
  580.5000   -61.8458     8.4266     9.4095    95.3150     7.6417     0.1208     2.4793     0.0102
  581.0000   -61.8304     8.4159     9.4173    95.6442     7.6497     0.1188     2.4750     0.0002
  581.5000   -61.8149     8.4043     9.4252    94.5838     7.6578     0.1167     2.4735    -0.0006
  582.0000   -61.7995     8.3887     9.4330    93.3539     7.6659     0.1146     2.4720    -0.0007
  582.5000   -61.7840     8.3732     9.4409    92.8754     7.6739     0.1125     2.4752     0.0003
  583.0000   -61.7686     8.3576     9.4487    93.4939     7.6820     0.1090     2.4797     0.0013
  583.5000   -61.7532     8.3423     9.4566    93.5456     7.6900     0.1054     2.4843     0.0023
  584.0000   -61.7377     8.3118     9.4645    92.4030     7.6983     0.1062     2.4899     0.0033
  584.5000   -61.7223     8.2221     9.4723    90.7711     7.6445     0.1108     2.5128     0.0034
  585.0000   -61.7068     8.1593     9.4774    88.2442     7.5642     0.1113     2.5074     0.0015
  585.5000   -61.6914     8.1219     9.4480    83.8065     7.5487     0.1123     2.4930    -0.0001
  586.0000   -61.6759     8.0847     9.4252    83.6429     7.5333     0.1137     2.4846    -0.0009
  586.5000   -61.6605     8.0476     9.4025    85.9223     7.5239     0.1173     2.4806     0.0010
  587.0000   -61.6451     7.9998     9.3406    88.0639     7.5231     0.1253     2.4772     0.0039
  587.5000   -61.6296     7.9406     9.2372    88.3785     7.5273     0.1327     2.4736     0.0034
  588.0000   -61.6142     7.8820     9.1346    89.3610     7.7093     0.1389     2.4644     0.0027
  588.5000   -61.5987     7.8815     9.1346    90.5549     7.9075     0.1433     2.4550     0.0020
  589.0000   -61.5832     7.8818     9.1347    91.7463     7.9886     0.1469     2.4456     0.0014
  589.5000   -61.5679     7.8818     9.1346    92.7103     8.0067     0.1390     2.4361     0.0025
  590.0000   -61.5516     7.8820     9.1345    91.0926     7.9407     0.1287     2.4262     0.0100
  590.5000   -61.6168     7.8818     9.1363    90.6853     7.9180     0.1182     2.4236     0.0225
  591.0000   -61.7330     7.8031     8.9677    94.3794     7.9577     0.1076     2.5169     0.0454
  591.5000   -61.8509     7.6313     8.8921    97.9700     7.9883     0.0962     2.5054     0.0582
  592.0000   -61.9461     7.4567     8.8039   100.2640     7.9491     0.1098     2.4832     0.0679
  592.5000   -61.7437     7.4571     8.6508    98.3442     7.9119     0.1200     2.4613     0.0705
  593.0000   -61.5589     7.4587     8.5630    98.3106     7.9200     0.1009     2.4522     0.0496
  593.5000   -61.7663     7.2186     8.6430    98.3152     7.9291     0.1160     2.4733     0.0284
  594.0000   -61.9266     7.0566     8.4466    98.3172     7.9049     0.1258     2.4821     0.0075
  594.5000   -61.7283     6.9274     8.1794    98.3571     7.8628     0.1188     2.4695     0.0007
  595.0000   -61.5591     6.9079     8.0104    98.5269     7.8657     0.1206     2.4678     0.0010
  595.5000   -61.7835     6.8883     7.9676    98.6874     7.8893     0.1205     2.4727     0.0014
  596.0000   -61.9397     6.8638     7.9386    98.8277     7.9086     0.1189     2.4774     0.0023
  596.5000   -61.8577     6.9256     7.8877    97.9891     7.8572     0.1139     2.4822     0.0032
  597.0000   -61.7732     7.0096     7.8372    96.6487     7.8341     0.1101     2.4869     0.0045
  597.5000   -61.9720     7.0946     7.8095    96.4650     7.8336     0.1097     2.4876     0.0065
  598.0000   -62.0276     7.1430     7.9317    91.9434     7.8333     0.1081     2.4888     0.0087
  598.5000   -61.7835     7.1743     8.1191    87.0211     7.8480     0.1056     2.4926     0.0110
